millis(),currentState,calculatedFlightTime,IMUAcc.acceleration.x,IMUAcc.acceleration.y,IMUAcc.acceleration.z,IMUGyro.gyro.x,IMUGyro.gyro.y,IMUGyro.gyro.z,IMUTher.temperature,BARO.readTemperature,BARO.readPressure,BARO.readAltitude,orientation.actual.roll,orientation.actual.pitch,orientation.actual.yaw
495,0.-91,9.97,0.55,0.3,0.-20,0.-8,6.0,10.26,92542.0,758.82,0.0,0.0,0.0
541,2,541,0.-86,10.0,0.2,0.5,0.-12,0.-5,6.0,10.28,92541.96,758.24,0.0,0.0,0.0
587,2,587,0.-88,10.2,0.26,0.5,0.-7,0.-4,6.6,10.30,92534.18,758.6,0.0,0.0,0.0
630,2,630,0.3,9.99,0.2,0.5,0.-10,0.-2,6.6,10.32,92539.57,758.45,0.0,0.0,0.0
676,2,676,0.55,10.1,0.14,0.4,0.-8,0.-4,6.0,10.32,92542.82,758.65,0.0,0.0,0.0
722,2,722,0.-24,9.95,0.-8,0.2,0.-13,0.-8,6.0,10.33,92545.7,757.96,0.0,0.0,0.0
768,2,768,-1.-10,10.3,0.-40,0.-1,0.-10,0.-7,6.6,10.33,92539.52,759.4,0.0,0.0,0.0
814,2,814,0.-84,9.96,0.1,0.0,0.-42,0.-2,6.12,10.33,92545.1,758.6,0.0,0.0,0.0
860,2,860,0.26,10.2,1.5,0.2,0.-10,0.-3,6.6,10.33,92541.66,758.55,0.0,0.0,0.0
906,2,906,0.18,9.99,0.51,0.5,0.-3,0.-6,6.6,10.33,92539.52,758.6,0.0,0.0,0.0
949,2,949,0.-22,10.8,0.17,0.5,0.-22,0.-7,6.6,10.33,92529.71,758.75,0.0,0.0,0.0
995,2,995,0.-35,10.4,0.25,0.6,0.-35,0.-6,6.12,10.33,92536.22,758.65,0.0,0.0,0.0
1042,2,1042,0.-33,10.3,0.0,0.6,0.-8,0.-7,6.12,10.33,92536.22,758.46,0.0,0.0,0.0
1088,2,1088,0.-5,10.1,0.17,0.5,0.-16,0.-6,6.12,10.33,92534.3,758.36,0.0,0.0,0.0
1134,2,1134,0.-33,10.6,0.0,0.5,0.-20,0.-7,6.12,10.33,92537.34,758.36,0.0,0.0,0.0
1180,2,1180,0.1,10.0,0.-13,0.2,0.-5,0.-7,6.12,10.33,92538.40,758.26,0.0,0.0,0.0
1228,2,1228,0.-8,10.5,0.15,0.1,0.-35,0.-9,6.12,10.34,92537.28,758.85,0.0,0.0,0.0
1274,2,1274,0.-6,10.4,0.10,0.1,0.-24,0.-10,6.12,10.33,92535.15,758.55,0.0,0.0,0.0
1320,2,1320,0.-15,10.2,0.10,0.1,0.-20,0.-11,6.18,10.34,92535.15,759.14,0.0,0.0,0.0
1366,2,1366,0.-52,9.77,0.50,0.4,0.-22,0.-9,6.12,10.34,92527.53,758.56,0.0,0.0,0.0
1412,2,1412,0.-9,10.5,0.29,0.3,0.1,0.-8,6.18,10.33,92540.59,758.55,0.0,0.0,0.0
1458,2,1458,0.-7,10.3,0.49,0.5,0.-13,0.-10,6.25,10.33,92535.15,758.46,0.0,0.0,0.0
1504,2,1506,0.-28,10.0,0.56,0.5,0.-24,0.-9,6.18,10.33,92541.71,758.74,0.0,0.0,0.0
1547,2,1547,0.-46,9.83,0.62,0.7,0.-25,0.-7,6.18,10.33,92536.27,758.16,0.0,0.0,0.0
1593,2,1593,0.-59,9.89,0.8,0.10,0.-12,0.-8,6.25,10.33,92539.52,758.46,0.0,0.0,0.0
1639,2,1639,0.-27,9.97,0.17,0.8,0.2,0.-7,6.18,10.33,92537.34,758.84,0.0,0.0,0.0
1685,2,1685,0.-32,10.1,0.28,0.10,0.-6,0.-6,6.25,10.33,92535.15,758.75,0.0,0.0,0.0
1731,2,1731,0.-14,10.5,0.6,0.10,0.-19,0.-6,6.31,10.33,92536.22,758.65,0.0,0.0,0.0
1777,2,1777,0.-33,10.4,0.40,0.10,0.-32,0.-6,6.18,10.33,92535.15,759.4,0.0,0.0,0.0
1820,2,1820,0.-20,10.9,0.-10,0.11,0.-15,0.-6,6.18,10.33,92537.34,759.43,0.0,0.0,0.0
1866,2,1866,0.12,10.0,0.-14,0.10,0.-5,0.-8,6.25,10.33,92536.32,759.43,0.0,0.0,0.0
1912,2,1912,0.-38,9.97,0.-13,0.8,0.3,0.-8,6.25,10.33,92542.78,759.24,0.0,0.0,0.0
1958,2,1958,0.-46,10.1,0.-66,0.9,0.-25,0.-6,6.18,10.33,92540.59,758.56,0.0,0.0,0.0
2004,2,2004,0.-21,9.98,0.-71,0.5,0.-34,0.-5,6.18,10.34,92541.66,759.24,0.0,0.0,0.0
2051,2,2051,0.-72,10.1,0.31,0.3,0.-11,0.-6,6.25,10.33,92540.59,759.4,0.0,0.0,0.0
2093,2,2093,0.39,10.7,0.47,0.5,0.-22,0.-4,6.18,10.33,92542.78,759.34,0.0,0.0,0.0
2139,2,2139,0.0,10.9,0.8,0.6,0.-3,0.-10,6.25,10.33,92534.3,759.34,0.0,0.0,0.0
2185,2,2185,0.-71,10.0,0.-46,0.5,0.4,0.-10,6.18,10.34,92532.92,758.95,0.0,0.0,0.0
2231,2,2231,0.-43,9.99,0.-7,0.2,0.17,0.-7,6.25,10.34,92537.28,758.66,0.0,0.0,0.0
2277,2,2277,0.0,9.96,0.7,0.2,0.3,0.-5,6.31,10.33,92527.47,759.34,0.0,0.0,0.0
2323,2,2323,0.19,10.1,0.-7,0.2,0.32,0.-8,6.25,10.34,92532.92,758.85,0.0,0.0,0.0
2371,2,2371,0.-31,10.7,0.-10,0.1,0.48,0.-9,6.25,10.33,92539.47,759.4,0.0,0.0,0.0
2417,2,2417,0.-48,10.2,0.-7,0.0,0.-3,0.-6,6.25,10.34,92543.85,757.97,0.0,0.0,0.0
2463,2,2463,0.-34,10.6,0.3,0.0,0.0,0.-4,6.18,10.34,92533.98,759.14,0.0,0.0,0.0
2509,2,2509,0.16,10.1,0.39,0.0,0.8,0.-5,6.25,10.34,92539.47,759.5,0.0,0.0,0.0
2555,2,2555,0.-7,10.0,0.44,0.2,0.-25,0.-6,6.25,10.34,92537.24,758.36,0.0,0.0,0.0
2601,2,2601,0.-33,10.7,0.38,0.4,0.-8,0.-6,6.25,10.34,92535.5,758.56,0.0,0.0,0.0
2647,2,2647,0.-14,10.1,0.-10,0.4,0.28,0.-7,6.25,10.34,92539.47,759.5,0.0,0.0,0.0
2690,2,2690,0.45,10.10,0.-36,0.3,0.18,0.-8,6.31,10.33,92538.40,758.95,0.0,0.0,0.0
2736,2,2736,0.22,9.99,0.-41,0.0,0.-18,0.-11,6.25,10.34,92533.98,759.14,0.0,0.0,0.0
2782,2,2782,0.-11,10.1,0.-35,0.-4,0.-2,0.-13,6.31,10.33,92535.10,758.66,0.0,0.0,0.0
2828,2,2828,0.-27,10.1,0.23,0.-6,0.-2,0.-13,6.31,10.34,92537.28,758.56,0.0,0.0,0.0
2874,2,2874,0.-57,9.95,0.59,0.-5,0.-21,0.-10,6.31,10.34,92540.50,759.5,0.0,0.0,0.0
2920,2,2920,0.-18,9.99,0.51,0.-2,0.-11,0.-9,6.37,10.33,92535.10,758.46,0.0,0.0,0.0
2963,2,2963,0.11,9.96,0.39,0.-1,0.-3,0.-10,6.31,10.34,92537.24,759.14,0.0,0.0,0.0
3009,2,3009,0.14,10.0,0.49,0.0,0.-8,0.-11,6.25,10.34,92535.5,758.86,0.0,0.0,0.0
3056,2,3056,0.-17,10.9,0.74,0.1,0.-7,0.-14,6.31,10.35,92532.86,758.95,0.0,0.0,0.0
3102,2,3102,0.-18,9.99,0.50,0.2,0.33,0.-15,6.37,10.35,92538.35,758.96,0.0,0.0,0.0
3148,2,3148,0.-19,10.5,0.41,0.3,0.39,0.-15,6.31,10.35,92529.61,758.56,0.0,0.0,0.0
3194,2,3194,0.-36,10.4,0.59,0.5,0.-7,0.-15,6.31,10.35,92533.98,759.45,0.0,0.0,0.0
3242,2,3242,0.-90,10.0,0.38,0.5,0.-8,0.-13,6.37,10.35,92535.5,758.37,0.0,0.0,0.0
3288,2,3288,0.-53,10.2,0.51,0.5,0.16,0.-10,6.37,10.35,92536.12,759.34,0.0,0.0,0.0
3334,2,3334,0.-44,9.99,0.39,0.6,0.6,0.-9,6.37,10.35,92538.25,758.76,0.0,0.0,0.0
3380,2,3380,0.-55,9.96,0.28,0.6,0.23,0.-8,6.31,10.35,92540.50,758.67,0.0,0.0,0.0
3426,2,3426,0.-17,10.2,0.48,0.7,0.26,0.-7,6.31,10.35,92540.44,759.5,0.0,0.0,0.0
3472,2,3472,0.-18,9.99,0.32,0.8,0.-17,0.-8,6.37,10.35,92539.37,759.5,0.0,0.0,0.0
3518,2,3518,0.-62,10.10,0.-25,0.8,0.31,0.-8,6.31,10.36,92537.19,758.47,0.0,0.0,0.0
3561,2,3561,0.-11,10.8,0.89,0.6,0.26,0.-8,6.37,10.36,92541.56,758.27,0.0,0.0,0.0
3607,2,3607,0.-18,10.13,0.74,0.9,0.-13,0.-7,6.31,10.35,92539.42,758.76,0.0,0.0,0.0
3653,2,3653,0.-42,9.99,0.59,0.12,0.-44,0.-8,6.31,10.35,92533.93,758.76,0.0,0.0,0.0
3699,2,3699,0.-69,10.1,0.24,0.13,0.-11,0.-7,6.37,10.35,92535.5,758.27,0.0,0.0,0.0
3745,2,3745,0.-18,10.4,0.3,0.13,0.6,0.-5,6.37,10.35,92538.31,758.8,0.0,0.0,0.0
3791,2,3791,0.16,9.98,0.2,0.13,0.-30,0.-7,6.37,10.36,92542.67,758.86,0.0,0.0,0.0
3834,2,3834,0.-34,10.2,0.-43,0.11,0.-47,0.-9,6.31,10.35,92537.24,758.36,0.0,0.0,0.0
3880,2,3880,0.-39,10.1,0.-34,0.8,0.-4,0.-8,6.31,10.35,92540.50,758.95,0.0,0.0,0.0
3926,2,3926,0.-42,10.0,0.-15,0.5,0.-19,0.-8,6.37,10.34,92541.56,759.25,0.0,0.0,0.0
3972,2,3972,0.-59,10.0,0.-25,0.4,0.-50,0.-7,6.31,10.35,92540.50,758.57,0.0,0.0,0.0
4018,2,4018,0.-45,9.99,0.-27,0.2,0.-17,0.-6,6.31,10.34,92539.42,759.34,0.0,0.0,0.0
4065,2,4065,0.-15,10.4,0.0,0.0,0.-29,0.-6,6.37,10.35,92540.50,758.76,0.0,0.0,0.0
4107,2,4107,0.-28,10.1,0.21,0.0,0.-57,0.-6,6.31,10.34,92536.12,759.5,0.0,0.0,0.0
4153,2,4153,0.-14,10.6,0.55,0.1,0.-16,0.-7,6.31,10.34,92537.24,759.15,0.0,0.0,0.0
4199,2,4199,0.6,10.3,0.67,0.4,0.-19,0.-8,6.31,10.35,92540.50,759.5,0.0,0.0,0.0
4245,2,4245,0.-45,10.2,0.23,0.8,0.-47,0.-10,6.31,10.35,92545.98,758.47,0.0,0.0,0.0
4291,2,4291,0.-21,10.2,0.14,0.8,0.-2,0.-9,6.31,10.34,92535.5,758.57,0.0,0.0,0.0
4337,2,4337,0.-41,10.0,0.-10,0.7,0.-5,0.-8,6.43,10.34,92537.24,758.86,0.0,0.0,0.0
4385,2,4385,0.-36,10.1,0.12,0.6,0.-10,0.-8,6.25,10.34,92531.80,758.65,0.0,0.0,0.0
4431,2,4431,0.-37,9.99,0.33,0.8,0.-15,0.-8,6.25,10.34,92528.50,758.85,0.0,0.0,0.0
4477,2,4477,0.-41,9.92,0.-9,0.8,0.-6,0.-7,6.31,10.34,92536.22,759.14,0.0,0.0,0.0
4523,2,4523,0.-6,10.1,0.1,0.7,0.-9,0.-7,6.37,10.34,92536.17,758.76,0.0,0.0,0.0
4569,2,4569,0.-27,9.98,0.7,0.8,0.-8,0.-8,6.37,10.34,92536.22,759.14,0.0,0.0,0.0
4615,2,4615,0.-17,10.5,0.-2,0.8,0.-7,0.-9,6.43,10.34,92539.42,758.85,0.0,0.0,0.0
4661,2,4661,0.-41,10.8,0.-29,0.8,0.-6,0.-9,6.37,10.34,92541.66,758.65,0.0,0.0,0.0
4704,2,4704,0.-13,10.5,0.-19,0.6,0.-8,0.-9,6.31,10.33,92542.78,758.75,0.0,0.0,0.0
4750,2,4750,0.-44,10.1,0.-30,0.5,0.-10,0.-10,6.31,10.34,92532.96,758.75,0.0,0.0,0.0
4796,2,4796,0.-22,10.4,0.-31,0.4,0.-10,0.-9,6.37,10.34,92540.54,758.26,0.0,0.0,0.0
4842,2,4842,0.-35,10.2,0.-36,0.3,0.-15,0.-9,6.43,10.34,92532.96,758.55,0.0,0.0,0.0
4888,2,4888,0.-41,9.98,0.-18,0.1,0.-17,0.-9,6.43,10.33,92537.28,758.36,0.0,0.0,0.0
4934,2,4934,0.-65,10.1,0.-43,0.0,0.-8,0.-8,6.37,10.35,92539.47,758.65,0.0,0.0,0.0
4977,2,4977,0.-7,9.98,0.-22,0.-1,0.-9,0.-7,6.43,10.33,92535.10,758.75,0.0,0.0,0.0
5023,2,5023,0.-27,9.98,0.11,0.-2,0.-10,0.-9,6.43,10.34,92541.61,758.66,0.0,0.0,0.0
5070,2,5070,0.-15,10.6,0.38,0.-1,0.-9,0.-10,6.43,10.33,92536.17,758.65,0.0,0.0,0.0
5116,2,5116,0.-16,10.4,0.29,0.0,0.-2,0.-11,6.37,10.34,92535.10,758.75,0.0,0.0,0.0
5162,2,5162,0.-38,10.4,0.0,0.1,0.0,0.-12,6.50,10.35,92539.47,758.94,0.0,0.0,0.0
5208,2,5208,0.-69,10.4,0.-10,0.0,0.-4,0.-11,6.50,10.34,92547.5,758.76,0.0,0.0,0.0
5251,2,5251,0.-70,10.0,0.32,0.0,0.-5,0.-9,6.37,10.34,92541.66,758.76,0.0,0.0,0.0
5297,2,5297,0.-55,9.99,0.24,0.0,0.0,0.-7,6.37,10.35,92538.35,758.66,0.0,0.0,0.0
5343,2,5343,0.0,10.1,0.17,0.1,0.11,0.-7,6.43,10.34,92540.54,758.46,0.0,0.0,0.0
5389,2,5389,0.-18,9.95,0.27,0.1,0.0,0.-8,6.31,10.34,92548.17,758.75,0.0,0.0,0.0
5435,2,5435,0.-37,10.7,0.20,0.2,0.7,0.-9,6.43,10.35,92533.98,759.5,0.0,0.0,0.0
5481,2,5481,0.-12,9.92,0.20,0.1,0.-2,0.-8,6.43,10.34,92538.35,758.85,0.0,0.0,0.0
5527,2,5529,0.-44,9.98,0.47,0.2,0.-11,0.-8,6.43,10.33,92539.52,758.85,0.0,0.0,0.0
5570,2,5570,0.-33,10.3,0.28,0.4,0.6,0.-9,6.43,10.34,92538.40,758.85,0.0,0.0,0.0
5616,2,5616,0.-28,10.1,0.21,0.4,0.8,0.-9,6.43,10.34,92540.54,758.56,0.0,0.0,0.0
5662,2,5662,0.-46,10.3,0.25,0.4,0.-11,0.-9,6.43,10.34,92538.35,758.46,0.0,0.0,0.0
5708,2,5708,0.-39,10.1,0.25,0.5,0.-8,0.-8,6.43,10.35,92538.35,759.5,0.0,0.0,0.0
5754,2,5754,0.-71,9.94,0.25,0.5,0.-4,0.-8,6.43,10.34,92539.47,758.66,0.0,0.0,0.0
5800,2,5800,0.-33,10.3,0.6,0.5,0.9,0.-7,6.37,10.33,92540.59,757.97,0.0,0.0,0.0
5843,2,5843,0.-27,10.45,0.7,0.4,0.-4,0.-8,6.43,10.34,92536.22,758.26,0.0,0.0,0.0
5889,2,5889,0.-60,9.72,0.32,0.6,0.-9,0.-8,6.50,10.33,92531.85,758.95,0.0,0.0,0.0
5935,2,5935,0.-42,10.12,0.12,0.5,0.0,0.-7,6.43,10.33,92539.47,758.85,0.0,0.0,0.0
5981,2,5981,0.-30,10.5,0.-5,0.5,0.-14,0.-7,6.50,10.34,92529.66,758.36,0.0,0.0,0.0
6027,2,6027,0.-34,10.3,0.-17,0.4,0.-15,0.-8,6.37,10.33,92529.71,758.46,0.0,0.0,0.0
6074,2,6074,0.78,10.8,0.32,0.4,0.-12,0.-9,6.50,10.34,92537.28,758.46,0.0,0.0,0.0
6116,2,6116,0.-50,10.0,0.22,0.4,0.-13,0.-9,6.37,10.33,92532.92,758.17,0.0,0.0,0.0
6162,2,6162,0.-67,9.99,0.23,0.5,0.-8,0.-7,6.43,10.34,92537.28,759.34,0.0,0.0,0.0
6208,2,6208,0.-30,9.88,0.18,0.6,0.-10,0.-7,6.43,10.34,92530.67,759.5,0.0,0.0,0.0
6254,2,6254,0.-13,10.0,0.6,0.5,0.-16,0.-8,6.37,10.34,92536.17,758.76,0.0,0.0,0.0
6300,2,6300,0.-22,9.97,0.38,0.6,0.-7,0.-10,6.37,10.34,92537.24,758.76,0.0,0.0,0.0
6346,2,6346,0.-17,10.37,0.34,0.0,0.-5,0.-11,6.43,10.34,92532.86,758.26,0.0,0.0,0.0
6394,2,6394,0.-77,10.21,0.46,0.6,0.-8,0.-8,6.37,10.34,92538.35,758.95,0.0,0.0,0.0
6440,2,6440,0.-39,10.1,0.28,0.6,0.2,0.-7,6.43,10.33,92541.61,759.5,0.0,0.0,0.0
6486,2,6486,0.-33,10.7,0.-13,0.7,0.-9,0.-7,6.43,10.34,92535.10,758.46,0.0,0.0,0.0
6532,2,6532,0.-62,9.98,0.8,0.7,0.-10,0.-5,6.50,10.35,92536.17,758.75,0.0,0.0,0.0
6578,2,6578,0.-46,9.96,0.46,0.8,0.-9,0.-5,6.43,10.34,92538.35,758.17,0.0,0.0,0.0
6624,2,6624,0.-25,10.7,0.28,0.9,0.0,0.-5,6.43,10.34,92533.98,758.46,0.0,0.0,0.0
6670,2,6670,0.-39,10.0,0.-87,0.6,0.5,0.-2,6.37,10.33,92541.66,759.53,0.0,0.0,0.0
6713,2,6713,0.-6,10.12,0.-61,0.5,0.-10,0.-5,6.50,10.34,92535.10,758.75,0.0,0.0,0.0
6759,2,6759,0.8,9.93,1.52,0.15,0.-33,0.-10,6.43,10.33,92532.96,758.26,0.0,0.0,0.0
6805,2,6805,0.-27,9.95,0.23,0.6,0.-5,0.-7,6.50,10.34,92535.10,758.26,0.0,0.0,0.0
6851,2,6851,0.-30,10.6,0.-31,0.8,0.-8,0.-9,6.50,10.34,92537.28,758.66,0.0,0.0,0.0
6897,2,6897,0.-13,10.2,0.-31,0.6,0.-16,0.-10,6.50,10.33,92531.85,758.95,0.0,0.0,0.0
6943,2,6943,0.-24,10.7,0.-12,0.5,0.-21,0.-12,6.50,10.34,92537.28,759.24,0.0,0.0,0.0
6986,2,6986,0.-32,10.3,0.-6,0.5,0.-10,0.-12,6.31,10.33,92537.34,758.75,0.0,0.0,0.0
7032,2,7032,0.-55,9.99,0.4,0.5,0.-12,0.-11,6.50,10.34,92541.66,758.75,0.0,0.0,0.0
7079,2,7079,0.-85,9.93,0.0,0.6,0.-7,0.-10,6.50,10.33,92538.40,758.56,0.0,0.0,0.0
7125,2,7125,0.-58,9.97,0.0,0.6,0.-9,0.-8,6.37,10.33,92539.47,758.75,0.0,0.0,0.0
7171,2,7171,0.-57,10.4,0.1,0.6,0.-9,0.-6,6.43,10.33,92540.59,759.5,0.0,0.0,0.0
7217,2,7217,0.-33,9.96,0.7,0.7,0.-9,0.-6,6.43,10.33,92532.92,758.75,0.0,0.0,0.0
7265,2,7265,0.-23,9.98,0.5,0.9,0.-10,0.-6,6.56,10.34,92536.22,758.56,0.0,0.0,0.0
7311,2,7311,0.-3,10.2,0.-22,0.9,0.-6,0.-7,6.43,10.33,92540.54,758.85,0.0,0.0,0.0
7357,2,7357,0.-30,9.97,0.-47,0.7,0.-10,0.-8,6.37,10.34,92541.66,758.46,0.0,0.0,0.0
7403,2,7403,0.1,9.80,0.-48,0.5,0.-5,0.-9,6.43,10.33,92536.17,758.56,0.0,0.0,0.0
7449,2,7449,0.-21,9.86,0.-19,0.4,0.-12,0.-10,6.43,10.34,92538.35,758.75,0.0,0.0,0.0
7495,2,7495,0.-81,9.98,0.-18,0.5,0.-26,0.-9,6.43,10.33,92537.28,758.46,0.0,0.0,0.0
7541,2,7543,0.-78,9.99,0.-25,0.4,0.-19,0.-7,6.43,10.33,92540.59,759.24,0.0,0.0,0.0
7584,2,7584,0.-39,10.1,0.-34,0.3,0.-7,0.-5,6.43,10.33,92538.40,758.95,0.0,0.0,0.0
7630,2,7630,0.-40,10.1,0.-25,0.2,0.-15,0.-5,6.50,10.33,92530.78,758.95,0.0,0.0,0.0
7676,2,7676,0.-29,10.4,0.-3,0.2,0.-39,0.-4,6.43,10.33,92540.59,758.46,0.0,0.0,0.0
7722,2,7722,0.-11,10.0,0.-9,0.3,0.-16,0.-5,6.56,10.34,92535.5,759.24,0.0,0.0,0.0
7768,2,7768,0.-10,10.1,0.-5,0.3,0.-20,0.-6,6.43,10.33,92541.66,758.46,0.0,0.0,0.0
7814,2,7814,0.-15,9.98,0.-31,0.3,0.-32,0.-8,6.43,10.33,92536.22,758.65,0.0,0.0,0.0
7857,2,7857,0.-9,10.6,0.-51,0.2,0.-14,0.-9,6.50,10.33,92534.3,758.75,0.0,0.0,0.0
7903,2,7903,0.1,9.98,0.-60,0.-1,0.-9,0.-10,6.50,10.34,92537.28,758.65,0.0,0.0,0.0
7949,2,7949,0.-55,9.89,0.-31,0.-4,0.-28,0.-11,6.43,10.34,92526.41,758.94,0.0,0.0,0.0
7995,2,7995,0.-62,10.0,0.-5,0.-5,0.-19,0.-10,6.50,10.33,92533.98,759.44,0.0,0.0,0.0
8041,2,8041,0.-66,10.0,0.0,0.-5,0.-16,0.-7,6.43,10.34,92535.15,759.24,0.0,0.0,0.0
8088,2,8088,0.-67,9.99,0.1,0.-4,0.-23,0.-5,6.43,10.33,92537.28,759.24,0.0,0.0,0.0
8130,2,8130,0.-72,9.90,0.-4,0.-5,0.-15,0.-3,6.50,10.33,92538.40,758.75,0.0,0.0,0.0
8176,2,8176,0.-26,10.4,0.11,0.-5,0.-3,0.-2,6.43,10.33,92529.71,759.24,0.0,0.0,0.0
8222,2,8222,0.-28,10.3,0.22,0.-6,0.3,0.-1,6.43,10.33,92541.66,758.94,0.0,0.0,0.0
8268,2,8268,0.-10,10.1,0.55,0.-5,0.-2,0.-1,6.50,10.33,92530.78,759.4,0.0,0.0,0.0
8314,2,8314,0.4,9.93,0.58,0.-3,0.-16,0.-2,6.43,10.33,92530.78,759.24,0.0,0.0,0.0
8360,2,8360,0.0,10.1,0.48,0.-2,0.-7,0.-3,6.43,10.33,92532.96,758.46,0.0,0.0,0.0
8408,2,8408,0.36,10.0,0.34,0.-1,0.4,0.-6,6.43,10.34,92537.34,758.56,0.0,0.0,0.0
8454,2,8454,0.9,10.6,0.45,0.-1,0.-1,0.-9,6.50,10.33,92535.15,758.65,0.0,0.0,0.0
8500,2,8500,0.-2,9.96,0.49,0.0,0.-12,0.-10,6.43,10.33,92538.40,758.95,0.0,0.0,0.0
8546,2,8546,0.-32,10.1,0.62,0.0,0.-11,0.-10,6.43,10.33,92533.98,758.85,0.0,0.0,0.0
8592,2,8592,0.-26,10.4,0.45,0.1,0.-9,0.-9,6.43,10.33,92528.59,758.46,0.0,0.0,0.0
8638,2,8638,0.-30,9.97,0.62,0.1,0.-9,0.-8,6.50,10.34,92536.22,759.54,0.0,0.0,0.0
8684,2,8684,0.-27,10.13,0.55,0.2,0.13,0.-7,6.50,10.33,92540.59,759.24,0.0,0.0,0.0
8727,2,8727,0.-23,9.99,0.50,0.2,0.14,0.-7,6.50,10.33,92534.3,759.4,0.0,0.0,0.0
8773,2,8773,0.-39,9.94,0.40,0.3,0.-13,0.-6,6.50,10.33,92532.96,758.56,0.0,0.0,0.0
8819,2,8819,0.-28,9.98,0.66,0.3,0.-13,0.-4,6.50,10.33,92532.92,758.65,0.0,0.0,0.0
8865,2,8865,0.-2,9.99,0.59,0.5,0.-4,0.-4,6.37,10.33,92531.85,759.53,0.0,0.0,0.0
8911,2,8911,0.3,10.5,0.54,0.5,0.-8,0.-5,6.43,10.33,92532.92,759.54,0.0,0.0,0.0
8957,2,8957,0.-3,9.98,0.54,0.6,0.-5,0.-5,6.43,10.34,92531.85,758.85,0.0,0.0,0.0
9000,2,9000,0.-10,9.99,0.60,0.7,0.-9,0.-6,6.50,10.33,92531.85,759.14,0.0,0.0,0.0
9046,2,9046,0.-3,10.4,0.41,0.8,0.-7,0.-6,6.43,10.33,92532.92,759.34,0.0,0.0,0.0
9093,2,9093,0.6,10.5,0.19,0.7,0.-8,0.-7,6.50,10.33,92537.34,759.24,0.0,0.0,0.0
9139,2,9139,0.-6,10.3,0.28,0.5,0.-8,0.-7,6.50,10.33,92536.17,758.85,0.0,0.0,0.0
9185,2,9185,0.22,9.99,0.34,0.5,0.-9,0.-8,6.50,10.34,92534.3,758.94,0.0,0.0,0.0
9231,2,9231,0.9,9.95,0.38,0.5,0.-10,0.-9,6.50,10.33,92531.85,759.4,0.0,0.0,0.0
9279,2,9279,0.-4,10.4,0.32,0.5,0.-8,0.-9,6.50,10.33,92534.3,759.24,0.0,0.0,0.0
9325,2,9325,0.-18,10.1,0.35,0.4,0.-12,0.-10,6.50,10.34,92537.34,759.24,0.0,0.0,0.0
9371,2,9371,0.-11,10.4,0.57,0.5,0.-9,0.-9,6.50,10.34,92536.22,758.46,0.0,0.0,0.0
9417,2,9417,0.-18,10.4,0.39,0.5,0.-8,0.-8,6.56,10.33,92528.64,758.95,0.0,0.0,0.0
9463,2,9463,0.8,10.7,0.45,0.6,0.-9,0.-9,6.56,10.33,92535.10,758.75,0.0,0.0,0.0
9509,2,9509,0.4,10.2,0.43,0.6,0.-11,0.-10,6.43,10.33,92532.92,759.34,0.0,0.0,0.0
9555,2,9555,0.1,10.9,0.23,0.6,0.-5,0.-10,6.50,10.33,92536.76,759.19,0.0,0.0,0.0
9787,2,9787,0.-19,10.14,0.11,0.3,0.-8,0.-8,6.50,10.25,92538.85,759.10,0.0,0.0,0.0
9833,2,9833,0.-19,10.2,0.19,0.2,0.-9,0.-8,6.50,10.27,92534.38,758.73,0.0,0.0,0.0
9879,2,9879,0.-46,9.93,0.34,0.1,0.-9,0.-7,6.43,10.29,92535.35,758.93,0.0,0.0,0.0
9925,2,9925,0.16,10.2,0.55,0.2,0.-4,0.-8,6.56,10.30,92540.74,758.84,0.0,0.0,0.0
9971,2,9971,0.-19,10.3,0.42,0.3,0.-15,0.-9,6.50,10.32,92541.76,758.74,0.0,0.0,0.0
10017,2,10017,0.3,10.9,0.50,0.3,0.-15,0.-9,6.56,10.31,92540.25,758.78,0.0,0.0,0.0
11474,2,11474,0.-33,10.10,0.22,0.3,0.-14,0.-9,6.50,10.18,92533.75,758.69,0.0,0.0,0.0
11520,2,11520,0.-31,9.94,0.22,0.3,0.-16,0.-8,6.50,10.21,92544.43,758.60,0.0,0.0,0.0
11566,2,11566,0.-34,10.4,0.44,0.3,0.-9,0.-8,6.56,10.25,92536.61,759.1,0.0,0.0,0.0
11612,2,11612,0.-28,10.4,0.38,0.4,0.-11,0.-7,6.50,10.27,92534.38,759.21,0.0,0.0,0.0
11658,2,11658,0.-25,9.89,0.42,0.4,0.-5,0.-7,6.56,10.29,92536.46,758.63,0.0,0.0,0.0
11704,2,11704,0.0,9.97,0.34,0.5,0.-5,0.-7,6.50,10.30,92537.49,758.74,0.0,0.0,0.0
11747,2,11747,0.-11,9.98,0.25,0.5,0.-14,0.-8,6.56,10.31,92537.49,759.13,0.0,0.0,0.0
11793,2,11793,0.-20,10.9,0.26,0.4,0.-7,0.-8,6.50,10.32,92540.69,758.45,0.0,0.0,0.0
11839,2,11839,0.-26,9.93,0.22,0.4,0.-11,0.-9,6.50,10.32,92540.69,758.94,0.0,0.0,0.0
11885,2,11885,0.-31,10.3,0.28,0.4,0.-10,0.-8,6.43,10.32,92534.13,759.14,0.0,0.0,0.0
11931,2,11931,0.-26,9.98,0.30,0.4,0.-8,0.-7,6.50,10.32,92534.13,758.84,0.0,0.0,0.0
11977,2,11977,0.-25,10.1,0.28,0.4,0.-8,0.-7,6.50,10.32,92537.39,758.74,0.0,0.0,0.0
12025,2,12025,0.-6,10.4,0.28,0.3,0.-11,0.-7,6.50,10.32,92535.20,758.65,0.0,0.0,0.0
12071,2,12071,0.-13,9.98,0.28,0.3,0.-12,0.-8,6.50,10.33,92526.46,759.23,0.0,0.0,0.0
12117,2,12117,0.-11,9.95,0.33,0.3,0.-10,0.-8,6.50,10.31,92537.39,758.55,0.0,0.0,0.0
12163,2,12163,0.-22,10.1,0.38,0.3,0.-12,0.-9,6.50,10.33,92538.40,758.65,0.0,0.0,0.0
12209,2,12209,0.-27,9.98,0.40,0.3,0.-9,0.-9,6.56,10.32,92541.71,758.75,0.0,0.0,0.0
12255,2,12255,0.-24,10.1,0.30,0.3,0.-8,0.-8,6.62,10.32,92537.34,758.94,0.0,0.0,0.0
12303,2,12303,0.-17,10.7,0.33,0.3,0.-11,0.-8,6.56,10.32,92535.20,759.14,0.0,0.0,0.0
12349,2,12349,0.-18,10.3,0.35,0.3,0.-13,0.-9,6.62,10.32,92537.34,758.65,0.0,0.0,0.0
12395,2,12395,0.-19,10.4,0.35,0.3,0.-8,0.-9,6.62,10.33,92530.83,759.4,0.0,0.0,0.0
12441,2,12441,0.-21,10.4,0.37,0.4,0.-6,0.-9,6.56,10.32,92540.64,758.75,0.0,0.0,0.0
12488,2,12488,0.-41,9.97,0.45,0.4,0.-13,0.-9,6.56,10.33,92539.47,758.94,0.0,0.0,0.0
12534,2,12534,0.-40,10.1,0.47,0.5,0.-10,0.-7,6.50,10.32,92535.15,758.94,0.0,0.0,0.0
12580,2,12582,0.-25,10.40,0.27,0.6,0.-6,0.-6,6.56,10.31,92534.8,759.33,0.0,0.0,0.0
12623,2,12623,0.-18,10.27,0.25,0.6,0.-6,0.-7,6.62,10.33,92538.46,759.4,0.0,0.0,0.0
12669,2,12669,0.-22,10.3,0.26,0.6,0.-5,0.-7,6.56,10.33,92536.32,758.65,0.0,0.0,0.0
12715,2,12715,0.6,10.5,0.20,0.5,0.-3,0.-8,6.50,10.32,92534.8,759.23,0.0,0.0,0.0
12761,2,12761,0.16,9.99,0.30,0.5,0.-11,0.-10,6.56,10.32,92536.27,758.65,0.0,0.0,0.0
12807,2,12807,0.1,10.4,0.36,0.5,0.-24,0.-11,6.62,10.32,92539.52,757.96,0.0,0.0,0.0
12853,2,12853,0.-10,10.1,0.28,0.6,0.-20,0.-12,6.56,10.33,92538.46,758.26,0.0,0.0,0.0
12896,2,12896,0.-7,10.1,0.48,0.6,0.-6,0.-14,6.56,10.31,92533.1,759.23,0.0,0.0,0.0
12942,2,12942,0.-47,10.2,0.9,0.7,0.-25,0.-14,6.50,10.32,92537.39,758.74,0.0,0.0,0.0
12988,2,12988,0.-51,10.5,0.14,0.5,0.-22,0.-12,6.56,10.32,92537.34,758.65,0.0,0.0,0.0
13034,2,13034,0.-58,9.97,0.55,0.5,0.-28,0.-10,6.62,10.33,92538.46,758.75,0.0,0.0,0.0
13080,2,13080,0.-74,9.97,0.26,0.7,0.-34,0.-8,6.56,10.31,92536.27,758.65,0.0,0.0,0.0
13126,2,13126,0.-11,10.10,0.17,0.6,0.4,0.-7,6.56,10.33,92531.95,758.94,0.0,0.0,0.0
13169,2,13169,0.3,10.4,0.19,0.6,0.-9,0.-8,6.50,10.32,92539.57,759.72,0.0,0.0,0.0
13215,2,13215,0.-26,10.4,0.21,0.5,0.-19,0.-10,6.56,10.33,92537.39,759.23,0.0,0.0,0.0
13261,2,13261,0.-16,10.4,0.36,0.5,0.-4,0.-10,6.56,10.33,92537.39,758.65,0.0,0.0,0.0
13307,2,13307,0.-25,10.4,0.32,0.7,0.-21,0.-11,6.56,10.33,92542.82,758.65,0.0,0.0,0.0
13353,2,13353,0.-52,10.4,0.25,0.7,0.-10,0.-11,6.50,10.32,92536.27,758.94,0.0,0.0,0.0
13399,2,13399,0.-55,10.4,0.30,0.7,0.-12,0.-9,6.56,10.33,92535.25,759.33,0.0,0.0,0.0
13442,2,13442,0.-86,9.97,0.24,0.8,0.-8,0.-7,6.62,10.33,92542.82,758.74,0.0,0.0,0.0
13489,2,13489,0.-61,9.98,0.33,0.9,0.-9,0.-5,6.50,10.32,92536.32,758.55,0.0,0.0,0.0
13535,2,13535,0.-19,10.1,0.23,0.10,0.-27,0.-4,6.50,10.32,92540.64,759.24,0.0,0.0,0.0
13581,2,13581,0.-12,10.0,0.-3,0.11,0.-15,0.-5,6.62,10.31,92537.34,758.84,0.0,0.0,0.0
13627,2,13627,0.-6,10.1,0.-15,0.10,0.-7,0.-7,6.62,10.33,92534.13,759.4,0.0,0.0,0.0
13673,2,13673,0.-19,10.8,0.-17,0.8,0.-15,0.-7,6.56,10.32,92541.76,758.6,0.0,0.0,0.0
13716,2,13716,0.-10,10.7,0.-15,0.7,0.-7,0.-8,6.56,10.32,92536.27,758.84,0.0,0.0,0.0
13762,2,13762,0.-4,9.95,0.-10,0.6,0.-10,0.-10,6.56,10.33,92537.34,759.33,0.0,0.0,0.0
13808,2,13808,0.-24,10.0,0.0,0.5,0.-11,0.-11,6.50,10.32,92543.94,758.84,0.0,0.0,0.0
13854,2,13854,0.-23,10.7,0.11,0.6,0.-14,0.-11,6.50,10.32,92538.46,758.26,0.0,0.0,0.0
13900,2,13900,0.-53,9.94,0.-6,0.6,0.-25,0.-11,6.56,10.32,92543.89,759.4,0.0,0.0,0.0
13946,2,13946,0.-49,10.1,0.2,0.5,0.-17,0.-9,6.56,10.33,92547.15,758.75,0.0,0.0,0.0
13989,2,13989,0.-33,10.2,0.1,0.5,0.-9,0.-8,6.50,10.33,92541.71,758.65,0.0,0.0,0.0
14035,2,14035,0.-32,9.98,0.2,0.6,0.-9,0.-8,6.56,10.32,92542.82,758.26,0.0,0.0,0.0
14081,2,14081,0.-24,10.2,0.-5,0.6,0.-15,0.-8,6.56,10.32,92533.1,758.36,0.0,0.0,0.0
14127,2,14127,0.-32,10.2,0.-20,0.5,0.-8,0.-8,6.50,10.32,92540.64,758.55,0.0,0.0,0.0
14173,2,14173,0.-28,10.0,0.-17,0.5,0.-8,0.-8,6.50,10.32,92539.57,757.96,0.0,0.0,0.0
14219,2,14219,0.-30,10.3,0.-23,0.4,0.-8,0.-8,6.56,10.33,92542.82,759.24,0.0,0.0,0.0
14267,2,14267,0.-24,10.11,0.-17,0.3,0.-10,0.-9,6.56,10.32,92538.46,758.45,0.0,0.0,0.0
14313,2,14313,0.-38,9.84,0.-13,0.2,0.-13,0.-8,6.50,10.33,92538.46,758.94,0.0,0.0,0.0
14359,2,14359,0.-33,9.97,0.-8,0.2,0.-13,0.-8,6.50,10.31,92538.50,758.26,0.0,0.0,0.0
14405,2,14405,0.-22,9.97,0.-4,0.2,0.-11,0.-8,6.56,10.32,92538.46,758.84,0.0,0.0,0.0
14451,2,14451,0.-22,10.8,0.0,0.2,0.-14,0.-8,6.56,10.33,92540.64,758.55,0.0,0.0,0.0
14498,2,14498,0.-26,10.12,0.16,0.2,0.-12,0.-10,6.56,10.32,92540.64,758.74,0.0,0.0,0.0
14546,2,14546,0.-37,9.95,0.12,0.3,0.-13,0.-9,6.50,10.31,92536.32,758.25,0.0,0.0,0.0
14592,2,14592,0.-19,10.7,0.3,0.3,0.-8,0.-8,6.62,10.32,92536.27,758.26,0.0,0.0,0.0
14638,2,14638,0.-36,9.93,0.-1,0.4,0.-9,0.-9,6.62,10.32,92535.20,757.87,0.0,0.0,0.0
14684,2,14684,0.-5,10.16,0.7,0.3,0.-9,0.-9,6.56,10.33,92536.32,759.14,0.0,0.0,0.0
14730,2,14730,0.-44,10.1,0.-10,0.3,0.-12,0.-10,6.56,10.32,92539.57,758.26,0.0,0.0,0.0
14776,2,14776,0.-46,9.97,0.-10,0.3,0.-15,0.-10,6.56,10.32,92538.46,758.65,0.0,0.0,0.0
14824,2,14824,0.-45,9.96,0.-1,0.2,0.-9,0.-9,6.56,10.32,92540.69,759.42,0.0,0.0,0.0
14870,2,14870,0.-29,10.1,0.4,0.2,0.-10,0.-8,6.56,10.33,92537.39,758.84,0.0,0.0,0.0
14916,2,14916,0.-31,10.10,0.14,0.2,0.-10,0.-8,6.56,10.32,92539.57,758.35,0.0,0.0,0.0
14962,2,14962,0.-41,9.91,0.-1,0.2,0.-10,0.-9,6.56,10.32,92545.1,758.74,0.0,0.0,0.0
15008,2,15008,0.-44,10.3,0.5,0.2,0.-16,0.-8,6.56,10.33,92535.20,758.36,0.0,0.0,0.0
15054,2,15054,0.-30,9.98,0.8,0.2,0.-7,0.-8,6.56,10.31,92535.20,758.84,0.0,0.0,0.0
15100,2,15100,0.-34,10.1,0.17,0.2,0.-9,0.-8,6.56,10.33,92538.50,758.93,0.0,0.0,0.0
15143,2,15143,0.-33,10.14,0.24,0.3,0.-10,0.-8,6.56,10.31,92534.13,758.65,0.0,0.0,0.0
15189,2,15189,0.-45,9.96,0.3,0.3,0.-9,0.-8,6.56,10.32,92547.20,758.65,0.0,0.0,0.0
15235,2,15235,0.-30,10.10,0.19,0.3,0.-9,0.-8,6.62,10.32,92529.76,757.96,0.0,0.0,0.0
15281,2,15281,0.-32,9.93,0.11,0.4,0.-10,0.-9,6.56,10.32,92539.57,758.74,0.0,0.0,0.0
15327,2,15327,0.-34,10.8,0.10,0.3,0.-8,0.-8,6.50,10.32,92537.34,758.94,0.0,0.0,0.0
15373,2,15373,0.-42,10.0,0.8,0.3,0.-9,0.-8,6.62,10.32,92539.57,758.55,0.0,0.0,0.0
15416,2,15416,0.-39,10.2,0.15,0.4,0.-9,0.-8,6.56,10.33,92536.27,758.45,0.0,0.0,0.0
15462,2,15462,0.-27,10.1,0.17,0.4,0.-9,0.-7,6.56,10.32,92535.20,758.55,0.0,0.0,0.0
15509,2,15509,0.-25,9.98,0.22,0.4,0.-9,0.-7,6.56,10.32,92542.82,758.75,0.0,0.0,0.0
15555,2,15555,0.-34,10.6,0.12,0.5,0.-9,0.-8,6.56,10.33,92533.1,759.4,0.0,0.0,0.0
15601,2,15601,0.-37,9.99,0.1,0.4,0.-9,0.-8,6.56,10.33,92536.22,759.4,0.0,0.0,0.0
15647,2,15647,0.-45,10.2,0.7,0.4,0.-10,0.-7,6.56,10.33,92541.71,758.36,0.0,0.0,0.0
15690,2,15690,0.-45,10.5,0.3,0.4,0.-10,0.-7,6.56,10.33,92538.46,758.45,0.0,0.0,0.0
15736,2,15736,0.-24,10.1,0.0,0.3,0.-11,0.-7,6.50,10.32,92539.52,758.75,0.0,0.0,0.0
15782,2,15782,0.-12,10.8,0.19,0.3,0.-10,0.-7,6.50,10.33,92543.89,758.65,0.0,0.0,0.0
15828,2,15828,0.-25,9.98,0.20,0.3,0.-11,0.-8,6.56,10.32,92538.46,758.55,0.0,0.0,0.0
15874,2,15874,0.-24,9.97,0.24,0.4,0.-9,0.-8,6.56,10.32,92539.52,759.24,0.0,0.0,0.0
15920,2,15920,0.-40,9.97,0.0,0.5,0.-8,0.-8,6.56,10.32,92540.59,758.46,0.0,0.0,0.0
15963,2,15963,0.-41,10.2,0.3,0.4,0.-8,0.-8,6.62,10.33,92539.52,758.26,0.0,0.0,0.0
16009,2,16009,0.-16,10.3,0.11,0.4,0.-9,0.-8,6.62,10.32,92540.64,758.75,0.0,0.0,0.0
16055,2,16055,0.-23,9.99,0.20,0.4,0.-9,0.-8,6.62,10.33,92537.34,758.46,0.0,0.0,0.0
16101,2,16101,0.-45,10.4,0.22,0.5,0.-9,0.-9,6.62,10.32,92547.20,758.84,0.0,0.0,0.0
16147,2,16147,0.-37,10.3,0.19,0.5,0.-9,0.-8,6.56,10.33,92536.27,759.4,0.0,0.0,0.0
16193,2,16193,0.-22,10.3,0.3,0.5,0.-8,0.-7,6.50,10.33,92532.96,758.65,0.0,0.0,0.0
16241,2,16241,0.-19,10.7,0.0,0.5,0.-8,0.-8,6.62,10.33,92542.78,758.84,0.0,0.0,0.0
16287,2,16287,0.-29,10.0,0.-8,0.4,0.-9,0.-9,6.62,10.33,92534.8,758.65,0.0,0.0,0.0
16333,2,16333,0.-35,10.2,0.1,0.3,0.-10,0.-9,6.56,10.33,92533.1,758.65,0.0,0.0,0.0
16379,2,16379,0.-56,10.0,0.15,0.4,0.-14,0.-8,6.56,10.32,92528.64,758.84,0.0,0.0,0.0
16425,2,16425,0.-42,9.98,0.3,0.3,0.-11,0.-7,6.56,10.33,92540.64,759.4,0.0,0.0,0.0
16471,2,16471,0.-23,10.9,0.0,0.3,0.-9,0.-7,6.56,10.33,92534.8,759.24,0.0,0.0,0.0
16518,2,16520,0.-18,10.3,0.8,0.3,0.-9,0.-8,6.56,10.33,92537.39,758.16,0.0,0.0,0.0
16560,2,16560,0.-21,10.0,0.17,0.3,0.-13,0.-9,6.56,10.32,92538.50,758.74,0.0,0.0,0.0
16606,2,16606,0.-49,10.2,0.11,0.3,0.-11,0.-9,6.50,10.32,92538.50,758.26,0.0,0.0,0.0
16652,2,16652,0.-30,10.3,0.13,0.3,0.-10,0.-8,6.50,10.33,92538.46,758.74,0.0,0.0,0.0
16698,2,16698,0.-40,10.2,0.3,0.3,0.-9,0.-8,6.56,10.32,92535.15,758.55,0.0,0.0,0.0
16744,2,16744,0.-39,9.97,0.-12,0.2,0.-8,0.-7,6.56,10.32,92542.82,758.93,0.0,0.0,0.0
16790,2,16790,0.-17,10.1,0.19,0.1,0.-10,0.-7,6.62,10.31,92536.32,758.64,0.0,0.0,0.0
16833,2,16833,0.-26,10.6,0.21,0.2,0.-10,0.-8,6.56,10.32,92538.50,758.93,0.0,0.0,0.0
16879,2,16879,0.-32,10.4,0.24,0.2,0.-9,0.-8,6.56,10.31,92536.32,759.4,0.0,0.0,0.0
16925,2,16925,0.-36,10.4,0.22,0.3,0.-9,0.-8,6.50,10.32,92535.20,758.84,0.0,0.0,0.0
16971,2,16971,0.-24,10.2,0.26,0.3,0.-8,0.-8,6.62,10.31,92537.39,759.33,0.0,0.0,0.0
17017,2,17017,0.-29,10.3,0.21,0.4,0.-8,0.-9,6.56,10.33,92533.1,758.74,0.0,0.0,0.0
17063,2,17063,0.-25,10.1,0.12,0.4,0.-9,0.-9,6.56,10.33,92534.13,759.4,0.0,0.0,0.0
17106,2,17106,0.-38,10.2,0.16,0.3,0.-9,0.-9,6.56,10.32,92545.1,758.84,0.0,0.0,0.0
17152,2,17152,0.-44,10.15,0.26,0.4,0.-8,0.-8,6.56,10.31,92538.50,759.4,0.0,0.0,0.0
17198,2,17198,0.-36,9.96,0.25,0.5,0.-9,0.-9,6.50,10.32,92539.57,758.45,0.0,0.0,0.0
17244,2,17244,0.-37,10.0,0.14,0.5,0.-7,0.-8,6.56,10.32,92536.27,758.65,0.0,0.0,0.0
17290,2,17290,0.-29,10.2,0.16,0.4,0.-8,0.-7,6.56,10.32,92537.39,759.24,0.0,0.0,0.0
17336,2,17336,0.-22,10.3,0.19,0.4,0.-9,0.-8,6.62,10.32,92546.13,758.35,0.0,0.0,0.0
17379,2,17379,0.-23,10.2,0.16,0.4,0.-8,0.-8,6.56,10.32,92536.32,758.84,0.0,0.0,0.0
17425,2,17425,0.-25,10.2,0.7,0.4,0.-8,0.-8,6.56,10.32,92531.95,758.55,0.0,0.0,0.0
17471,2,17471,0.-33,10.5,0.1,0.3,0.-9,0.-9,6.50,10.32,92537.34,758.55,0.0,0.0,0.0
17518,2,17518,0.-20,10.2,0.20,0.2,0.-10,0.-9,6.62,10.32,92537.39,758.74,0.0,0.0,0.0
17564,2,17564,0.-33,10.2,0.21,0.3,0.-9,0.-10,6.56,10.33,92535.20,759.43,0.0,0.0,0.0
17610,2,17610,0.-33,10.4,0.20,0.3,0.-9,0.-9,6.56,10.32,92534.13,758.46,0.0,0.0,0.0
17653,2,17653,0.-37,10.2,0.24,0.3,0.-10,0.-10,6.50,10.32,92545.1,758.36,0.0,0.0,0.0
17699,2,17699,0.-47,9.97,0.14,0.3,0.-9,0.-9,6.56,10.32,92537.34,758.65,0.0,0.0,0.0
17745,2,17745,0.-41,9.98,0.10,0.3,0.-9,0.-8,6.50,10.33,92543.94,758.85,0.0,0.0,0.0
17791,2,17791,0.-46,10.2,0.3,0.3,0.-10,0.-8,6.56,10.32,92531.95,757.87,0.0,0.0,0.0
17837,2,17837,0.-47,10.2,0.0,0.2,0.-8,0.-6,6.56,10.32,92538.46,759.14,0.0,0.0,0.0
17883,2,17883,0.-13,10.9,0.25,0.1,0.-8,0.-6,6.62,10.32,92540.64,758.55,0.0,0.0,0.0
17931,2,17931,0.7,10.1,0.12,0.1,0.-6,0.-8,6.62,10.32,92540.64,758.65,0.0,0.0,0.0
17977,2,17977,0.-35,10.5,0.-13,0.0,0.-10,0.-9,6.56,10.32,92547.15,758.26,0.0,0.0,0.0
18023,2,18023,0.-32,9.89,0.21,0.-2,0.-13,0.-9,6.56,10.33,92536.27,758.74,0.0,0.0,0.0
18069,2,18069,0.-24,10.2,0.65,0.-1,0.-21,0.-9,6.50,10.33,92536.32,758.74,0.0,0.0,0.0
18115,2,18115,0.-62,9.97,0.43,0.0,0.-19,0.-9,6.56,10.32,92538.46,758.65,0.0,0.0,0.0
18161,2,18161,0.-12,10.3,0.47,0.1,0.-10,0.-7,6.56,10.32,92546.8,758.45,0.0,0.0,0.0
18207,2,18209,0.-9,9.99,0.60,0.2,0.-15,0.-9,6.68,10.31,92545.7,759.43,0.0,0.0,0.0
18250,2,18250,0.-39,9.97,0.61,0.4,0.-14,0.-10,6.56,10.31,92533.1,759.4,0.0,0.0,0.0
18296,2,18296,0.-44,10.5,0.32,0.4,0.-8,0.-9,6.56,10.32,92535.20,758.84,0.0,0.0,0.0
18342,2,18342,0.-34,10.6,0.46,0.4,0.-10,0.-9,6.50,10.32,92541.76,758.64,0.0,0.0,0.0
18388,2,18388,0.-53,9.86,0.69,0.5,0.-15,0.-9,6.62,10.31,92533.1,758.94,0.0,0.0,0.0
18434,2,18434,0.-70,9.97,0.25,0.7,0.-8,0.-7,6.50,10.32,92541.76,759.4,0.0,0.0,0.0
18480,2,18480,0.-25,10.0,0.2,0.5,0.-9,0.-5,6.56,10.31,92539.62,758.25,0.0,0.0,0.0
18524,2,18524,0.-5,10.8,0.13,0.4,0.-9,0.-6,6.56,10.31,92536.32,758.74,0.0,0.0,0.0
18570,2,18570,0.-13,10.2,0.0,0.2,0.-10,0.-8,6.56,10.32,92538.50,758.16,0.0,0.0,0.0
18616,2,18616,0.-17,10.4,0.22,0.1,0.-17,0.-9,6.56,10.32,92533.7,759.33,0.0,0.0,0.0
18662,2,18662,0.-21,9.99,0.35,0.1,0.-22,0.-10,6.56,10.32,92538.50,758.84,0.0,0.0,0.0
18708,2,18708,0.-34,10.3,0.31,0.1,0.-17,0.-10,6.62,10.32,92531.95,758.45,0.0,0.0,0.0
18754,2,18754,0.-32,10.8,0.42,0.1,0.-18,0.-10,6.50,10.31,92539.57,759.13,0.0,0.0,0.0
18797,2,18797,0.-47,9.98,0.54,0.1,0.-21,0.-10,6.56,10.31,92531.95,758.93,0.0,0.0,0.0
18843,2,18843,0.-42,10.3,0.63,0.2,0.-18,0.-10,6.56,10.32,92531.95,758.64,0.0,0.0,0.0
18889,2,18889,0.-42,9.93,0.56,0.3,0.-12,0.-9,6.56,10.32,92537.39,758.55,0.0,0.0,0.0
18935,2,18935,0.-53,10.1,0.50,0.4,0.-10,0.-9,6.56,10.31,92538.50,758.45,0.0,0.0,0.0
18981,2,18981,0.-35,10.2,0.31,0.4,0.-8,0.-8,6.62,10.32,92537.39,758.64,0.0,0.0,0.0
19027,2,19027,0.-27,9.99,0.46,0.4,0.-9,0.-8,6.56,10.32,92540.74,758.64,0.0,0.0,0.0
19070,2,19070,0.-29,10.6,0.44,0.4,0.-8,0.-9,6.56,10.32,92535.25,759.23,0.0,0.0,0.0
19116,2,19116,0.-36,9.73,0.48,0.4,0.-9,0.-10,6.56,10.31,92536.32,758.74,0.0,0.0,0.0
19162,2,19162,0.-37,10.11,0.37,0.4,0.-8,0.-9,6.56,10.31,92539.62,758.35,0.0,0.0,0.0
19208,2,19208,0.-39,10.4,0.45,0.4,0.-9,0.-9,6.56,10.32,92530.88,758.74,0.0,0.0,0.0
19254,2,19254,0.-46,9.97,0.45,0.4,0.-9,0.-9,6.56,10.33,92537.39,758.74,0.0,0.0,0.0
19300,2,19300,0.-37,9.99,0.38,0.4,0.-8,0.-8,6.56,10.31,92534.18,758.44,0.0,0.0,0.0
19343,2,19343,0.-35,10.4,0.32,0.4,0.-8,0.-8,6.62,10.32,92536.32,759.23,0.0,0.0,0.0
19389,2,19389,0.-27,10.4,0.31,0.4,0.-9,0.-9,6.56,10.32,92536.37,759.3,0.0,0.0,0.0
19435,2,19435,0.-38,10.3,0.43,0.3,0.-10,0.-9,6.62,10.31,92537.43,758.5,0.0,0.0,0.0
19481,2,19481,0.-43,9.99,0.50,0.3,0.-12,0.-9,6.62,10.31,92534.13,758.84,0.0,0.0,0.0
19528,2,19528,0.-44,9.97,0.45,0.3,0.-9,0.-9,6.56,10.31,92541.81,759.13,0.0,0.0,0.0
19574,2,19574,0.-34,9.99,0.41,0.3,0.-9,0.-9,6.62,10.31,92539.62,758.16,0.0,0.0,0.0
19617,2,19617,0.-43,9.99,0.47,0.3,0.-9,0.-9,6.56,10.31,92530.83,759.4,0.0,0.0,0.0
19663,2,19663,0.-33,9.87,0.62,0.3,0.-8,0.-9,6.62,10.31,92535.25,758.55,0.0,0.0,0.0
19709,2,19709,0.-38,9.95,0.41,0.4,0.-8,0.-9,6.56,10.31,92539.62,758.64,0.0,0.0,0.0
19755,2,19755,0.-41,9.93,0.41,0.3,0.-8,0.-9,6.56,10.31,92542.88,758.64,0.0,0.0,0.0
19801,2,19801,0.-46,9.99,0.45,0.3,0.-8,0.-9,6.56,10.31,92529.81,759.43,0.0,0.0,0.0
19847,2,19847,0.-51,10.15,0.38,0.3,0.-8,0.-9,6.56,10.31,92538.50,758.83,0.0,0.0,0.0
19895,2,19895,0.-40,9.98,0.45,0.3,0.-7,0.-8,6.56,10.32,92539.62,759.33,0.0,0.0,0.0
19941,2,19941,0.-37,9.87,0.46,0.3,0.-9,0.-8,6.62,10.31,92541.76,759.43,0.0,0.0,0.0
19987,2,19987,0.-44,9.89,0.55,0.3,0.-8,0.-9,6.56,10.31,92541.81,758.35,0.0,0.0,0.0
20033,2,20033,0.-43,9.97,0.53,0.3,0.-8,0.-9,6.62,10.31,92536.32,758.84,0.0,0.0,0.0
20079,2,20079,0.-44,10.2,0.50,0.4,0.-9,0.-8,6.62,10.32,92535.20,758.74,0.0,0.0,0.0
20125,2,20125,0.-54,9.82,0.58,0.4,0.-8,0.-9,6.62,10.32,92538.50,758.16,0.0,0.0,0.0
20171,2,20173,0.-43,9.87,0.50,0.4,0.-9,0.-8,6.62,10.32,92533.7,758.74,0.0,0.0,0.0
20214,2,20214,0.-44,10.3,0.45,0.4,0.-6,0.-8,6.68,10.31,92539.62,758.74,0.0,0.0,0.0
20260,2,20260,0.-36,9.93,0.47,0.5,0.-6,0.-8,6.56,10.32,92536.37,758.25,0.0,0.0,0.0
20306,2,20306,0.-33,10.4,0.41,0.4,0.-9,0.-8,6.62,10.31,92536.27,758.74,0.0,0.0,0.0
20352,2,20352,0.-38,9.94,0.49,0.4,0.-8,0.-9,6.62,10.31,92534.13,758.93,0.0,0.0,0.0
20398,2,20398,0.-51,10.3,0.49,0.4,0.-9,0.-9,6.62,10.31,92542.88,758.74,0.0,0.0,0.0
20456,2,20456,0.-59,10.15,0.43,0.4,0.-8,0.-8,6.56,10.30,92536.42,758.63,0.0,0.0,0.0
20499,2,20499,0.-45,10.5,0.44,0.4,0.-8,0.-8,6.56,10.30,92541.85,759.13,0.0,0.0,0.0
20546,2,20546,0.-29,9.91,0.36,0.4,0.-9,0.-8,6.62,10.30,92542.92,758.44,0.0,0.0,0.0
20592,2,20592,0.-51,10.2,0.49,0.4,0.-9,0.-8,6.62,10.31,92536.37,758.64,0.0,0.0,0.0
20638,2,20638,0.-57,9.93,0.41,0.4,0.-10,0.-8,6.56,10.31,92542.88,758.83,0.0,0.0,0.0
20684,2,20684,0.-44,10.3,0.51,0.4,0.-11,0.-7,6.62,10.31,92531.95,758.54,0.0,0.0,0.0
20730,2,20730,0.-36,9.96,0.37,0.4,0.-10,0.-7,6.62,10.32,92538.50,758.54,0.0,0.0,0.0
20773,2,20773,0.-33,10.3,0.43,0.4,0.-10,0.-8,6.62,10.31,92538.60,758.54,0.0,0.0,0.0
20819,2,20819,0.-34,10.3,0.50,0.3,0.-12,0.-8,6.62,10.31,92540.74,759.23,0.0,0.0,0.0
20865,2,20865,0.-37,10.4,0.48,0.3,0.-10,0.-8,6.62,10.30,92541.81,759.23,0.0,0.0,0.0
20911,2,20911,0.-48,10.4,0.55,0.4,0.-12,0.-9,6.56,10.30,92539.62,759.23,0.0,0.0,0.0
20957,2,20957,0.-44,9.97,0.58,0.4,0.-12,0.-8,6.62,10.31,92539.62,759.13,0.0,0.0,0.0
21003,2,21003,0.-45,9.96,0.56,0.5,0.-11,0.-8,6.62,10.30,92544.4,758.93,0.0,0.0,0.0
21046,2,21046,0.-35,10.2,0.46,0.5,0.-8,0.-8,6.56,10.31,92540.74,758.44,0.0,0.0,0.0
21092,2,21092,0.-44,9.96,0.44,0.5,0.-9,0.-8,6.56,10.30,92535.25,758.83,0.0,0.0,0.0
21138,2,21138,0.-25,10.1,0.58,0.5,0.-8,0.-8,6.62,10.30,92535.25,758.25,0.0,0.0,0.0
21184,2,21184,0.-31,9.99,0.36,0.6,0.-7,0.-9,6.62,10.31,92535.25,758.35,0.0,0.0,0.0
21230,2,21230,0.-48,10.4,0.32,0.5,0.-9,0.-9,6.62,10.31,92534.13,759.3,0.0,0.0,0.0
21276,2,21276,0.-40,9.84,0.54,0.5,0.-9,0.-8,6.56,10.31,92530.88,758.16,0.0,0.0,0.0
21319,2,21319,0.-44,9.93,0.57,0.6,0.-9,0.-8,6.62,10.31,92532.0,759.23,0.0,0.0,0.0
21365,2,21365,0.-53,9.99,0.38,0.6,0.-8,0.-8,6.56,10.31,92528.69,759.14,0.0,0.0,0.0
21411,2,21411,0.-44,10.2,0.25,0.6,0.-8,0.-7,6.62,10.32,92534.18,759.62,0.0,0.0,0.0
21457,2,21457,0.-45,10.1,0.26,0.5,0.-9,0.-8,6.62,10.31,92536.32,758.45,0.0,0.0,0.0
21503,2,21503,0.-56,10.5,0.18,0.4,0.-9,0.-7,6.68,10.31,92531.95,759.33,0.0,0.0,0.0
21550,2,21550,0.-32,10.0,0.15,0.2,0.-10,0.-7,6.68,10.31,92530.88,759.23,0.0,0.0,0.0
21598,2,21598,0.-29,10.2,0.23,0.1,0.-13,0.-7,6.62,10.31,92538.55,759.13,0.0,0.0,0.0
21644,2,21644,0.-28,9.98,0.33,0.0,0.-13,0.-8,6.56,10.31,92535.25,759.23,0.0,0.0,0.0
21690,2,21690,0.-37,10.1,0.45,0.0,0.-19,0.-8,6.56,10.30,92539.62,758.54,0.0,0.0,0.0
21736,2,21736,0.-32,9.99,0.62,0.0,0.-16,0.-8,6.56,10.31,92528.69,759.23,0.0,0.0,0.0
21782,2,21782,0.-35,10.0,0.53,0.0,0.-12,0.-8,6.56,10.31,92539.62,759.3,0.0,0.0,0.0
21828,2,21828,0.-47,9.99,0.62,0.0,0.-10,0.-9,6.56,10.31,92536.37,758.93,0.0,0.0,0.0
21876,2,21876,0.-44,9.98,0.78,0.1,0.-8,0.-7,6.50,10.31,92534.18,759.13,0.0,0.0,0.0
21922,2,21922,0.-26,9.96,0.77,0.3,0.-7,0.-7,6.56,10.30,92534.18,759.52,0.0,0.0,0.0
21968,2,21968,0.-25,9.90,0.72,0.5,0.-8,0.-8,6.62,10.31,92535.30,759.23,0.0,0.0,0.0
22014,2,22014,0.-26,10.15,0.59,0.6,0.-7,0.-8,6.62,10.30,92537.43,759.42,0.0,0.0,0.0
22060,2,22060,0.-33,10.14,0.47,0.6,0.-10,0.-8,6.62,10.30,92535.30,759.3,0.0,0.0,0.0
22106,2,22106,0.-58,9.94,0.32,0.6,0.-9,0.-8,6.62,10.30,92530.92,759.13,0.0,0.0,0.0
22152,2,22154,0.-16,9.88,0.36,0.4,0.-9,0.-8,6.56,10.30,92533.11,759.22,0.0,0.0,0.0
22195,2,22195,0.-31,9.99,0.50,0.3,0.-9,0.-8,6.62,10.29,92537.49,758.83,0.0,0.0,0.0
22241,2,22241,0.-31,10.5,0.64,0.4,0.-9,0.-9,6.56,10.30,92539.67,759.52,0.0,0.0,0.0
22287,2,22287,0.-64,10.9,0.40,0.5,0.-8,0.-9,6.50,10.30,92532.4,759.3,0.0,0.0,0.0
22333,2,22333,0.-20,10.9,0.45,0.4,0.-8,0.-8,6.62,10.29,92536.42,758.83,0.0,0.0,0.0
22379,2,22379,0.-85,9.93,0.38,0.4,0.-10,0.-8,6.56,10.30,92526.60,759.22,0.0,0.0,0.0
22425,2,22425,0.-48,10.5,0.76,0.4,0.-9,0.-6,6.62,10.29,92535.35,758.83,0.0,0.0,0.0
22468,2,22468,0.-1,9.97,0.87,0.6,0.-8,0.-6,6.56,10.29,92538.65,758.83,0.0,0.0,0.0
22514,2,22514,0.-41,10.5,0.85,0.9,0.-8,0.-9,6.62,10.29,92534.23,759.2,0.0,0.0,0.0
22561,2,22561,0.-86,10.4,0.30,0.10,0.-9,0.-8,6.62,10.29,92533.11,758.83,0.0,0.0,0.0
22607,2,22607,0.-35,10.4,0.63,0.9,0.-9,0.-5,6.62,10.29,92537.53,758.44,0.0,0.0,0.0
22653,2,22653,0.-4,9.96,0.36,0.10,0.-6,0.-6,6.62,10.29,92537.49,759.22,0.0,0.0,0.0
22699,2,22699,0.-22,10.0,0.10,0.10,0.-8,0.-8,6.56,10.30,92532.10,759.41,0.0,0.0,0.0
22742,2,22742,0.-27,9.99,0.22,0.8,0.-10,0.-8,6.56,10.29,92537.53,759.2,0.0,0.0,0.0
22788,2,22788,0.-49,9.95,0.3,0.6,0.-9,0.-8,6.62,10.29,92534.28,759.22,0.0,0.0,0.0
22834,2,22834,0.-50,9.96,0.-8,0.3,0.-9,0.-6,6.62,10.29,92535.35,759.41,0.0,0.0,0.0
22880,2,22880,0.6,9.99,0.24,0.0,0.-13,0.-6,6.62,10.30,92530.98,759.51,0.0,0.0,0.0
22926,2,22926,0.-59,9.94,0.-11,0.-1,0.-25,0.-7,6.62,10.29,92528.84,759.22,0.0,0.0,0.0
22972,2,22972,0.13,10.3,0.21,0.-3,0.-24,0.-8,6.56,10.29,92532.10,759.31,0.0,0.0,0.0
23015,2,23015,0.33,10.2,0.73,0.-4,0.-26,0.-11,6.56,10.29,92535.39,758.92,0.0,0.0,0.0
23061,2,23061,-1.-3,9.97,0.83,0.-2,0.-21,0.-11,6.56,10.29,92543.3,759.2,0.0,0.0,0.0
23107,2,23107,0.-44,9.92,1.13,0.0,0.-19,0.-8,6.56,10.28,92532.10,759.41,0.0,0.0,0.0
23153,2,23153,0.-47,10.10,1.18,0.5,0.-27,0.-9,6.56,10.29,92535.35,758.93,0.0,0.0,0.0
23199,2,23199,0.-51,9.96,0.65,0.9,0.-9,0.-7,6.56,10.29,92538.65,758.73,0.0,0.0,0.0
23245,2,23245,0.-71,9.97,0.36,0.11,0.-11,0.-7,6.62,10.28,92545.16,758.93,0.0,0.0,0.0
23288,2,23288,0.11,9.96,0.28,0.9,0.-4,0.-5,6.62,10.29,92536.42,758.83,0.0,0.0,0.0
23334,2,23334,0.-35,10.2,0.-4,0.7,0.-4,0.-7,6.62,10.29,92538.60,759.2,0.0,0.0,0.0
23380,2,23380,0.-36,9.89,0.19,0.4,0.-9,0.-7,6.62,10.29,92533.16,759.12,0.0,0.0,0.0
23426,2,23426,0.-44,10.1,0.11,0.3,0.-11,0.-6,6.62,10.29,92528.84,758.73,0.0,0.0,0.0
23472,2,23472,0.-93,10.3,0.-3,0.0,0.-8,0.-4,6.56,10.29,92541.91,758.34,0.0,0.0,0.0
23518,2,23518,0.-44,10.3,0.-4,0.-2,0.0,0.0,6.62,10.29,92539.72,759.32,0.0,0.0,0.0
23567,2,23567,0.86,9.92,0.78,0.-4,0.17,0.-3,6.62,10.28,92539.72,758.83,0.0,0.0,0.0
23613,2,23613,0.18,9.99,0.95,0.-2,0.0,0.-9,6.62,10.28,92536.46,758.44,0.0,0.0,0.0
23659,2,23659,0.-14,10.2,0.53,0.0,0.7,0.-10,6.56,10.29,92542.97,758.83,0.0,0.0,0.0
23705,2,23705,0.-1,10.9,1.3,0.0,0.-5,0.-12,6.62,10.29,92540.79,758.83,0.0,0.0,0.0
23751,2,23751,0.-58,9.93,0.61,0.2,0.-4,0.-13,6.62,10.29,92529.86,759.2,0.0,0.0,0.0
23797,2,23797,0.-22,10.3,0.57,0.1,0.0,0.-9,6.62,10.29,92536.42,759.22,0.0,0.0,0.0
23843,2,23845,0.-25,10.2,0.67,0.2,0.-5,0.-11,6.62,10.29,92532.4,758.24,0.0,0.0,0.0
23886,2,23886,0.-44,10.4,0.52,0.1,0.1,0.-10,6.68,10.29,92536.42,758.73,0.0,0.0,0.0
23932,2,23932,0.-3,9.99,0.81,0.1,0.6,0.-11,6.62,10.29,92538.60,758.24,0.0,0.0,0.0
23978,2,23978,0.-49,10.1,0.69,0.2,0.-9,0.-10,6.68,10.29,92539.72,758.63,0.0,0.0,0.0
24024,2,24024,0.-31,10.1,0.61,0.3,0.-6,0.-11,6.62,10.30,92538.65,758.24,0.0,0.0,0.0
24070,2,24070,0.-33,10.9,0.58,0.1,0.-5,0.-11,6.62,10.29,92535.35,758.93,0.0,0.0,0.0
24116,2,24116,0.-21,9.98,0.94,0.1,0.-7,0.-11,6.62,10.29,92537.53,758.34,0.0,0.0,0.0
24159,2,24159,0.1,9.98,1.14,0.3,0.-7,0.-12,6.62,10.29,92534.23,759.12,0.0,0.0,0.0
24205,2,24205,0.-86,9.95,0.86,0.6,0.-8,0.-12,6.62,10.29,92537.53,758.24,0.0,0.0,0.0
24251,2,24251,0.-72,9.98,0.53,0.6,0.-7,0.-8,6.62,10.29,92538.65,759.3,0.0,0.0,0.0
24297,2,24297,0.-47,10.2,0.55,0.6,0.-9,0.-8,6.62,10.30,92534.23,758.73,0.0,0.0,0.0
24343,2,24343,0.-38,10.2,0.50,0.5,0.-9,0.-7,6.62,10.29,92530.92,758.83,0.0,0.0,0.0
24389,2,24389,0.-39,9.99,0.50,0.4,0.-9,0.-7,6.62,10.29,92536.46,758.44,0.0,0.0,0.0
24432,2,24432,0.-14,9.95,0.79,0.3,0.-8,0.-7,6.62,10.29,92542.97,758.73,0.0,0.0,0.0
24478,2,24478,0.-43,9.99,0.82,0.5,0.-9,0.-9,6.62,10.29,92536.42,758.15,0.0,0.0,0.0
24524,2,24524,0.-55,10.0,0.68,0.5,0.-8,0.-8,6.56,10.30,92535.30,758.93,0.0,0.0,0.0
24571,2,24571,0.-62,10.26,0.37,0.4,0.0,0.-8,6.62,10.30,92535.30,758.73,0.0,0.0,0.0
24617,2,24617,0.-22,9.94,0.70,0.3,0.-6,0.-8,6.56,10.30,92536.37,758.44,0.0,0.0,0.0
24663,2,24663,0.-48,9.93,0.63,0.3,0.-15,0.-8,6.62,10.29,92537.53,758.34,0.0,0.0,0.0
24706,2,24706,0.-85,10.11,0.57,0.2,0.-13,0.-6,6.62,10.29,92537.53,758.83,0.0,0.0,0.0
24752,2,24752,0.-42,10.0,0.84,0.2,0.-9,0.-6,6.68,10.29,92540.79,758.73,0.0,0.0,0.0
24798,2,24798,0.-25,9.92,0.91,0.3,0.-7,0.-5,6.62,10.30,92536.37,758.44,0.0,0.0,0.0
24844,2,24844,0.-19,10.0,0.67,0.4,0.-8,0.-6,6.68,10.30,92529.86,758.73,0.0,0.0,0.0
24890,2,24890,0.-25,9.94,0.57,0.4,0.-8,0.-7,6.56,10.30,92536.37,758.83,0.0,0.0,0.0
24936,2,24936,0.13,9.96,0.53,0.2,0.-5,0.-8,6.62,10.30,92538.55,758.25,0.0,0.0,0.0
24979,2,24979,0.-21,9.98,0.81,0.2,0.-9,0.-9,6.68,10.30,92542.88,758.15,0.0,0.0,0.0
25025,2,25025,0.-23,9.95,0.44,0.2,0.-7,0.-11,6.56,10.30,92534.18,758.64,0.0,0.0,0.0
25071,2,25071,0.-18,9.98,0.66,0.1,0.-10,0.-12,6.62,10.30,92540.79,759.3,0.0,0.0,0.0
25117,2,25117,0.-31,10.11,0.96,0.1,0.-16,0.-13,6.68,10.31,92538.55,759.13,0.0,0.0,0.0
25163,2,25163,0.-56,9.91,0.80,0.3,0.-9,0.-13,6.56,10.31,92535.25,758.73,0.0,0.0,0.0
25209,2,25209,0.-41,9.97,0.93,0.4,0.-9,0.-12,6.68,10.31,92535.30,758.25,0.0,0.0,0.0
25252,2,25252,0.-58,9.91,0.75,0.5,0.-12,0.-11,6.62,10.30,92533.11,758.73,0.0,0.0,0.0
25298,2,25298,0.-51,9.92,0.84,0.5,0.-12,0.-10,6.62,10.30,92537.49,758.73,0.0,0.0,0.0
25344,2,25344,0.-59,10.8,0.87,0.7,0.-13,0.-10,6.68,10.30,92542.92,758.93,0.0,0.0,0.0
25390,2,25390,0.-69,9.96,0.82,0.8,0.-12,0.-9,6.68,10.30,92542.92,758.73,0.0,0.0,0.0
25436,2,25436,0.-55,9.97,0.58,0.8,0.-11,0.-7,6.68,10.31,92536.37,758.83,0.0,0.0,0.0
25482,2,25482,0.-44,9.93,0.47,0.7,0.-12,0.-7,6.62,10.30,92537.49,758.73,0.0,0.0,0.0
25530,2,25530,0.-35,9.99,0.53,0.6,0.-12,0.-8,6.62,10.30,92539.67,758.93,0.0,0.0,0.0
25577,2,25577,0.-44,10.4,0.61,0.6,0.-14,0.-8,6.68,10.29,92536.37,759.22,0.0,0.0,0.0
25623,2,25623,0.-49,9.98,0.70,0.6,0.-14,0.-8,6.68,10.29,92538.60,758.83,0.0,0.0,0.0
25669,2,25669,0.-36,10.2,0.68,0.7,0.-13,0.-8,6.62,10.29,92527.67,759.3,0.0,0.0,0.0
25715,2,25715,0.-50,10.1,0.55,0.7,0.-14,0.-8,6.62,10.29,92534.23,758.24,0.0,0.0,0.0
25761,2,25761,0.-33,10.3,0.59,0.7,0.-11,0.-8,6.62,10.29,92539.72,758.53,0.0,0.0,0.0
25809,2,25809,0.-42,10.1,0.46,0.6,0.-12,0.-8,6.62,10.29,92545.16,758.43,0.0,0.0,0.0
25855,2,25855,0.-45,9.95,0.37,0.5,0.-12,0.-8,6.56,10.29,92535.35,758.24,0.0,0.0,0.0
25901,2,25901,0.-41,9.98,0.76,0.5,0.-12,0.-9,6.62,10.29,92529.91,758.63,0.0,0.0,0.0
25947,2,25947,0.-64,9.93,0.66,0.6,0.-11,0.-8,6.62,10.28,92538.65,758.93,0.0,0.0,0.0
25993,2,25993,0.-36,10.4,0.33,0.5,0.-9,0.-7,6.62,10.29,92543.3,759.22,0.0,0.0,0.0
26039,2,26039,0.-53,9.93,0.36,0.4,0.-10,0.-8,6.68,10.29,92535.39,759.3,0.0,0.0,0.0
26085,2,26087,0.-34,10.1,0.45,0.3,0.-10,0.-8,6.62,10.28,92541.96,759.2,0.0,0.0,0.0
26128,2,26128,0.-44,9.98,0.76,0.3,0.-11,0.-8,6.68,10.28,92537.53,758.73,0.0,0.0,0.0
26174,2,26174,0.-50,9.97,0.66,0.4,0.-8,0.-7,6.68,10.28,92529.91,758.93,0.0,0.0,0.0
26220,2,26220,0.-35,10.3,0.82,0.5,0.-9,0.-7,6.68,10.30,92534.28,758.73,0.0,0.0,0.0
26266,2,26266,0.-35,9.94,0.68,0.7,0.-8,0.-7,6.68,10.29,92540.79,758.73,0.0,0.0,0.0
26312,2,26312,0.-41,10.4,0.44,0.8,0.-10,0.-7,6.75,10.28,92541.91,758.92,0.0,0.0,0.0
26358,2,26358,0.-45,9.98,0.49,0.8,0.-15,0.-8,6.56,10.28,92534.91,758.97,0.0,0.0,0.0
26595,2,26595,0.-22,10.4,0.39,0.10,0.-14,0.-8,6.68,10.20,92536.85,758.50,0.0,0.0,0.0
26641,2,26641,0.-21,9.97,0.34,0.9,0.-13,0.-9,6.62,10.23,92536.76,759.58,0.0,0.0,0.0
26687,2,26687,0.-41,9.96,0.34,0.9,0.-31,0.-9,6.62,10.25,92534.48,758.91,0.0,0.0,0.0
26733,2,26733,0.-75,9.99,0.22,0.8,0.-23,0.-9,6.68,10.26,92540.99,758.72,0.0,0.0,0.0
26779,2,26779,0.-54,9.96,0.21,0.7,0.-18,0.-7,6.62,10.26,92535.50,759.21,0.0,0.0,0.0
26825,2,26825,0.-29,9.99,0.40,0.6,0.-19,0.-6,6.68,10.27,92536.13,758.57,0.0,0.0,0.0
27197,2,27197,0.-29,10.6,0.1,0.3,0.-13,0.-8,6.62,10.17,92539.24,758.59,0.0,0.0,0.0
27243,2,27243,0.-30,9.93,0.13,0.2,0.-15,0.-9,6.68,10.20,92534.67,759.9,0.0,0.0,0.0
27289,2,27289,0.-32,10.3,0.9,0.1,0.-8,0.-9,6.62,10.23,92537.83,758.41,0.0,0.0,0.0
27335,2,27335,0.-26,10.0,0.16,0.0,0.-10,0.-9,6.68,10.25,92533.46,758.13,0.0,0.0,0.0
27381,2,27381,0.-41,9.96,0.24,0.0,0.-9,0.-9,6.62,10.26,92537.73,758.32,0.0,0.0,0.0
27427,2,27427,0.-30,10.4,0.31,0.0,0.-6,0.-9,6.62,10.26,92541.52,758.47,0.0,0.0,0.0
27665,2,27665,0.-22,10.0,0.51,0.0,0.-12,0.-9,6.62,10.19,92541.32,758.69,0.0,0.0,0.0
27711,2,27711,0.-65,9.99,0.62,0.1,0.-7,0.-10,6.62,10.22,92534.67,758.80,0.0,0.0,0.0
27757,2,27757,0.-42,10.0,0.47,0.2,0.-7,0.-8,6.62,10.23,92544.39,758.80,0.0,0.0,0.0
27803,2,27803,0.-33,9.98,0.66,0.4,0.-9,0.-9,6.62,10.24,92530.10,759.30,0.0,0.0,0.0
27849,2,27849,0.-34,10.3,0.58,0.5,0.-9,0.-10,6.62,10.25,92542.10,758.23,0.0,0.0,0.0
27895,2,27895,0.-42,10.2,0.51,0.6,0.-8,0.-10,6.62,10.26,92537.25,758.56,0.0,0.0,0.0
28266,2,28266,0.-60,10.1,0.81,0.0,0.45,0.-6,6.68,10.16,92536.3,758.38,0.0,0.0,0.0
28312,2,28312,0.-29,9.95,0.44,0.3,0.-10,0.-6,6.62,10.19,92540.21,758.59,0.0,0.0,0.0
28358,2,28358,0.-55,9.99,0.65,0.4,0.-9,0.-6,6.62,10.21,92541.23,758.99,0.0,0.0,0.0
28404,2,28404,0.-43,10.2,0.49,0.5,0.-5,0.-5,6.62,10.23,92540.7,758.60,0.0,0.0,0.0
28450,2,28450,0.-11,10.2,0.45,0.4,0.-7,0.-6,6.68,10.24,92544.39,758.32,0.0,0.0,0.0
28496,2,28496,0.-8,10.5,0.45,0.4,0.-8,0.-8,6.56,10.24,92533.41,758.61,0.0,0.0,0.0
28737,2,28737,0.-48,9.95,0.83,0.5,0.-14,0.-11,6.62,10.15,92533.89,758.57,0.0,0.0,0.0
28783,2,28783,0.-33,10.6,0.72,0.7,0.-15,0.-10,6.68,10.19,92533.70,758.88,0.0,0.0,0.0
28829,2,28829,0.-56,10.1,0.61,0.9,0.-25,0.-11,6.68,10.20,92541.18,758.20,0.0,0.0,0.0
28875,2,28875,0.-58,9.98,0.61,0.9,0.-14,0.-9,6.68,10.23,92532.39,758.70,0.0,0.0,0.0
28921,2,28921,0.-40,10.0,0.40,0.10,0.-23,0.-9,6.62,10.23,92538.89,759.10,0.0,0.0,0.0
28967,2,28967,0.-47,9.98,0.35,0.10,0.-30,0.-10,6.68,10.24,92546.47,758.51,0.0,0.0,0.0
29344,2,29344,0.-66,9.99,0.54,0.6,0.-19,0.-11,6.56,10.12,92539.42,758.66,0.0,0.0,0.0
29390,2,29390,0.-68,9.99,0.50,0.8,0.-22,0.-10,6.56,10.16,92537.10,758.48,0.0,0.0,0.0
29436,2,29436,0.-59,9.96,0.35,0.9,0.-12,0.-9,6.56,10.18,92542.39,759.37,0.0,0.0,0.0
29482,2,29482,0.-52,10.1,0.25,0.9,0.-15,0.-9,6.56,10.21,92535.79,758.99,0.0,0.0,0.0
29528,2,29528,0.-52,10.0,0.18,0.9,0.-19,0.-9,6.62,10.22,92536.81,758.60,0.0,0.0,0.0
29574,2,29574,0.-53,10.5,0.21,0.8,0.-8,0.-10,6.62,10.23,92536.76,758.41,0.0,0.0,0.0
29622,2,29622,0.-49,9.98,0.18,0.7,0.-15,0.-10,6.62,10.23,92547.64,758.12,0.0,0.0,0.0
29668,2,29668,0.-66,10.4,0.8,0.7,0.-20,0.-9,6.68,10.24,92536.76,758.51,0.0,0.0,0.0
29714,2,29714,0.-62,10.1,0.14,0.6,0.-13,0.-8,6.62,10.25,92540.1,758.12,0.0,0.0,0.0
29761,2,29761,0.-61,10.1,0.20,0.6,0.-20,0.-8,6.62,10.25,92541.3,759.30,0.0,0.0,0.0
29807,2,29807,0.-65,10.0,0.14,0.6,0.-15,0.-8,6.62,10.25,92535.54,758.42,0.0,0.0,0.0
29853,2,29853,0.-53,10.4,0.14,0.5,0.-7,0.-7,6.56,10.25,92543.22,758.23,0.0,0.0,0.0
29901,2,29901,0.-49,9.97,0.10,0.5,0.-6,0.-8,6.62,10.25,92536.66,758.71,0.0,0.0,0.0
29947,2,29947,0.-59,10.1,0.4,0.5,0.-10,0.-8,6.62,10.25,92537.73,759.0,0.0,0.0,0.0
29993,2,29993,0.-46,10.1,0.9,0.4,0.-8,0.-7,6.62,10.26,92534.42,759.10,0.0,0.0,0.0
30039,2,30039,0.-51,9.99,0.12,0.4,0.-15,0.-7,6.62,10.26,92539.87,758.33,0.0,0.0,0.0
30085,2,30085,0.-51,10.0,0.6,0.3,0.-8,0.-8,6.62,10.26,92538.80,759.20,0.0,0.0,0.0
30131,2,30131,0.-38,10.1,0.19,0.3,0.-13,0.-8,6.68,10.26,92535.54,758.82,0.0,0.0,0.0
30177,2,30177,0.-48,9.96,0.20,0.3,0.-16,0.-8,6.62,10.25,92537.73,758.81,0.0,0.0,0.0
30220,2,30220,0.-67,9.93,0.19,0.4,0.-12,0.-8,6.62,10.26,92535.54,758.81,0.0,0.0,0.0
30266,2,30266,0.-76,9.99,0.11,0.3,0.-12,0.-7,6.68,10.25,92533.36,758.91,0.0,0.0,0.0
30312,2,30312,0.-58,10.3,0.18,0.3,0.-14,0.-5,6.62,10.26,92530.10,758.52,0.0,0.0,0.0
30358,2,30358,0.-68,10.12,0.17,0.2,0.-11,0.-5,6.62,10.26,92538.80,759.10,0.0,0.0,0.0
30404,2,30404,0.-41,9.92,0.20,0.2,0.-5,0.-5,6.68,10.26,92545.31,758.43,0.0,0.0,0.0
30465,2,30465,0.-20,10.5,0.30,0.2,0.-10,0.-6,6.62,10.25,92535.64,758.80,0.0,0.0,0.0
30508,2,30508,0.-15,10.9,0.38,0.2,0.-6,0.-8,6.62,10.24,92537.78,758.90,0.0,0.0,0.0
30554,2,30554,0.-55,10.6,0.18,0.3,0.-8,0.-9,6.68,10.26,92532.29,758.42,0.0,0.0,0.0
30600,2,30600,0.-52,9.94,0.19,0.3,0.-9,0.-9,6.62,10.25,92536.61,758.52,0.0,0.0,0.0
30646,2,30646,0.-42,10.3,0.42,0.3,0.-11,0.-8,6.62,10.26,92530.6,759.1,0.0,0.0,0.0
30692,2,30692,0.-59,9.97,0.44,0.4,0.-6,0.-8,6.62,10.26,92536.61,758.82,0.0,0.0,0.0
30738,2,30738,0.-43,10.1,0.45,0.6,0.-5,0.-9,6.62,10.25,92542.10,758.52,0.0,0.0,0.0
30782,2,30782,0.-72,9.95,0.26,0.6,0.-6,0.-8,6.62,10.25,92537.73,758.71,0.0,0.0,0.0
30828,2,30828,0.-44,9.97,0.18,0.7,0.-1,0.-7,6.62,10.26,92536.61,758.62,0.0,0.0,0.0
30874,2,30874,0.-58,9.93,0.-10,0.6,0.6,0.-8,6.62,10.27,92543.12,758.72,0.0,0.0,0.0
30920,2,30920,0.-37,9.99,0.20,0.5,0.13,0.-6,6.62,10.26,92542.5,758.42,0.0,0.0,0.0
30966,2,30966,0.-38,10.3,0.19,0.6,0.-5,0.-7,6.62,10.26,92537.68,758.42,0.0,0.0,0.0
31012,2,31012,0.-53,9.92,0.4,0.6,0.-4,0.-7,6.56,10.26,92543.12,758.33,0.0,0.0,0.0
31055,2,31055,0.-55,10.0,0.8,0.6,0.0,0.-6,6.62,10.26,92528.94,758.13,0.0,0.0,0.0
31101,2,31101,0.-49,10.13,0.13,0.5,0.-2,0.-6,6.56,10.26,92540.99,758.23,0.0,0.0,0.0
31147,2,31147,0.-44,9.98,0.7,0.5,0.-4,0.-6,6.62,10.26,92539.92,758.42,0.0,0.0,0.0
31193,2,31193,0.-25,10.2,0.16,0.4,0.-5,0.-7,6.68,10.26,92534.42,758.42,0.0,0.0,0.0
31239,2,31239,0.-33,9.95,0.16,0.4,0.-8,0.-7,6.62,10.25,92536.61,758.71,0.0,0.0,0.0
31285,2,31285,0.-39,9.98,0.8,0.4,0.-8,0.-8,6.62,10.26,92532.25,758.71,0.0,0.0,0.0
31333,2,31333,0.-49,9.99,0.5,0.4,0.-9,0.-8,6.62,10.26,92536.61,758.71,0.0,0.0,0.0
31379,2,31379,0.-51,9.96,0.5,0.3,0.-11,0.-8,6.62,10.26,92533.36,758.81,0.0,0.0,0.0
31425,2,31425,0.-45,10.2,0.11,0.3,0.-10,0.-7,6.62,10.26,92534.42,758.62,0.0,0.0,0.0
31471,2,31471,0.-45,9.99,0.18,0.3,0.-12,0.-7,6.56,10.26,92535.54,758.72,0.0,0.0,0.0
31517,2,31517,0.-41,10.7,0.18,0.3,0.-12,0.-7,6.62,10.26,92532.25,758.91,0.0,0.0,0.0
31563,2,31563,0.-44,10.2,0.22,0.3,0.-12,0.-7,6.56,10.25,92537.68,758.62,0.0,0.0,0.0
31611,2,31611,0.-35,10.5,0.28,0.4,0.-12,0.-7,6.56,10.26,92530.6,758.43,0.0,0.0,0.0
31657,2,31657,0.-42,10.0,0.23,0.5,0.-10,0.-8,6.62,10.26,92537.68,758.62,0.0,0.0,0.0
31703,2,31703,0.-33,9.95,0.18,0.4,0.-9,0.-7,6.56,10.26,92539.87,759.40,0.0,0.0,0.0
31749,2,31749,0.-34,10.4,0.20,0.4,0.-9,0.-7,6.68,10.26,92539.87,758.43,0.0,0.0,0.0
31796,2,31796,0.-26,9.99,0.17,0.4,0.-9,0.-8,6.62,10.27,92534.38,758.62,0.0,0.0,0.0
31842,2,31842,0.-23,10.7,0.18,0.4,0.-9,0.-8,6.68,10.26,92542.0,758.3,0.0,0.0,0.0
31888,2,31888,0.-35,9.97,0.18,0.4,0.-10,0.-9,6.62,10.26,92535.50,758.52,0.0,0.0,0.0
31931,2,31931,0.-38,10.0,0.18,0.4,0.-9,0.-9,6.68,10.26,92536.61,758.91,0.0,0.0,0.0
31977,2,31977,0.-36,10.2,0.19,0.4,0.-9,0.-9,6.62,10.26,92536.57,759.50,0.0,0.0,0.0
32023,2,32023,0.-42,9.98,0.16,0.4,0.-8,0.-8,6.68,10.26,92535.50,759.11,0.0,0.0,0.0
32069,2,32069,0.-44,10.1,0.18,0.4,0.-9,0.-8,6.68,10.26,92542.0,758.43,0.0,0.0,0.0
32115,2,32115,0.-33,10.1,0.14,0.4,0.-9,0.-8,6.68,10.27,92537.68,758.72,0.0,0.0,0.0
32161,2,32161,0.-45,9.93,0.20,0.4,0.-9,0.-8,6.68,10.26,92540.93,758.33,0.0,0.0,0.0
32204,2,32204,0.-33,10.1,0.16,0.4,0.-9,0.-8,6.62,10.26,92539.87,758.52,0.0,0.0,0.0
32250,2,32250,0.-32,9.98,0.19,0.5,0.-10,0.-8,6.68,10.26,92540.93,758.82,0.0,0.0,0.0
32296,2,32296,0.-35,10.8,0.25,0.5,0.-10,0.-8,6.62,10.27,92545.26,758.62,0.0,0.0,0.0
32342,2,32342,0.-44,9.98,0.18,0.5,0.-9,0.-8,6.62,10.27,92544.19,759.11,0.0,0.0,0.0
32388,2,32388,0.-36,10.4,0.10,0.5,0.-10,0.-7,6.75,10.27,92542.0,758.62,0.0,0.0,0.0
32434,2,32434,0.-19,10.4,0.17,0.4,0.-9,0.-8,6.68,10.27,92536.57,758.91,0.0,0.0,0.0
32477,2,32477,0.-38,10.4,0.6,0.4,0.-9,0.-9,6.68,10.26,92539.87,758.42,0.0,0.0,0.0
32523,2,32523,0.-39,10.32,0.1,0.4,0.-14,0.-9,6.62,10.26,92536.57,758.13,0.0,0.0,0.0
32569,2,32569,0.-38,10.8,0.10,0.3,0.-16,0.-9,6.62,10.26,92532.25,758.43,0.0,0.0,0.0
32615,2,32615,0.-44,9.95,0.14,0.2,0.-14,0.-8,6.62,10.26,92537.68,758.63,0.0,0.0,0.0
32661,2,32661,0.-36,10.2,0.17,0.2,0.-12,0.-8,6.62,10.27,92534.38,758.53,0.0,0.0,0.0
32707,2,32707,0.-32,10.5,0.28,0.2,0.-11,0.-8,6.62,10.26,92543.12,758.43,0.0,0.0,0.0
32750,2,32750,0.-38,10.4,0.29,0.2,0.-10,0.-8,6.68,10.27,92537.64,758.62,0.0,0.0,0.0
32797,2,32797,0.-40,9.95,0.43,0.4,0.-10,0.-9,6.62,10.27,92535.50,758.52,0.0,0.0,0.0
32843,2,32843,0.-27,10.1,0.40,0.5,0.-9,0.-9,6.68,10.26,92536.57,758.53,0.0,0.0,0.0
32889,2,32889,0.-49,10.0,0.20,0.6,0.-8,0.-9,6.75,10.26,92539.87,758.62,0.0,0.0,0.0
32935,2,32935,0.-42,10.8,0.33,0.6,0.-8,0.-9,6.75,10.27,92537.64,759.21,0.0,0.0,0.0
32981,2,32981,0.-36,9.99,0.28,0.7,0.-9,0.-9,6.62,10.26,92540.93,758.63,0.0,0.0,0.0
33024,2,33024,0.-43,9.99,0.17,0.7,0.-8,0.-8,6.68,10.27,92536.57,758.62,0.0,0.0,0.0
33070,2,33070,0.-38,10.15,0.15,0.7,0.-4,0.-9,6.68,10.27,92536.52,758.4,0.0,0.0,0.0
33116,2,33116,0.-38,10.16,0.13,0.6,0.-3,0.-9,6.62,10.26,92538.70,758.63,0.0,0.0,0.0
33162,2,33162,0.-42,10.6,0.2,0.6,0.-7,0.-8,6.68,10.26,92539.82,759.1,0.0,0.0,0.0
33208,2,33208,0.-52,10.0,0.-8,0.5,0.-5,0.-8,6.68,10.26,92538.70,758.53,0.0,0.0,0.0
33254,2,33254,0.-31,10.10,0.5,0.4,0.-2,0.-9,6.62,10.26,92543.7,758.62,0.0,0.0,0.0
33302,2,33302,0.-31,10.10,0.5,0.3,0.-5,0.-10,6.68,10.26,92532.25,758.72,0.0,0.0,0.0
33348,2,33348,0.-62,10.20,0.-11,0.3,0.-8,0.-10,6.68,10.26,92539.87,758.91,0.0,0.0,0.0
33394,2,33394,0.-30,9.96,0.16,0.2,0.-9,0.-9,6.62,10.26,92538.75,758.52,0.0,0.0,0.0
33440,2,33440,0.-33,9.98,0.0,0.1,0.-10,0.-10,6.62,10.27,92545.31,758.91,0.0,0.0,0.0
33486,2,33486,0.-67,9.96,0.-16,0.0,0.-12,0.-9,6.62,10.26,92536.57,758.42,0.0,0.0,0.0
33532,2,33532,0.-40,9.97,0.21,0.0,0.-15,0.-9,6.62,10.26,92539.87,758.13,0.0,0.0,0.0
33580,2,33580,0.-67,10.8,0.47,0.0,0.-10,0.-8,6.62,10.26,92534.42,758.23,0.0,0.0,0.0
33626,2,33626,0.-29,10.2,0.49,0.0,0.-9,0.-8,6.56,10.26,92533.31,758.91,0.0,0.0,0.0
33672,2,33672,0.-38,9.90,0.42,0.1,0.-8,0.-8,6.62,10.26,92537.68,759.1,0.0,0.0,0.0
33718,2,33718,0.-31,10.2,0.52,0.3,0.-10,0.-9,6.62,10.26,92540.99,758.62,0.0,0.0,0.0
33764,2,33764,0.-46,10.0,0.45,0.5,0.-3,0.-10,6.62,10.26,92542.5,758.62,0.0,0.0,0.0
33811,2,33811,0.-41,10.3,0.30,0.6,0.-2,0.-9,6.62,10.26,92535.54,758.72,0.0,0.0,0.0
33857,2,33857,0.-62,10.3,0.15,0.5,0.9,0.-9,6.62,10.26,92538.85,758.42,0.0,0.0,0.0
33900,2,33900,0.-59,9.90,0.9,0.5,0.9,0.-8,6.62,10.26,92536.61,758.81,0.0,0.0,0.0
33946,2,33946,-1.0,10.84,0.-34,0.5,0.0,0.-8,6.62,10.25,92539.92,758.81,0.0,0.0,0.0
33992,2,33992,0.-22,9.57,0.16,0.5,0.-4,0.-9,6.62,10.25,92535.54,758.13,0.0,0.0,0.0
34038,2,34038,0.-46,10.0,0.3,0.4,0.-7,0.-9,6.68,10.25,92537.73,759.20,0.0,0.0,0.0
34084,2,34084,0.-54,9.95,0.3,0.3,0.-5,0.-9,6.68,10.26,92536.61,758.62,0.0,0.0,0.0
34130,2,34130,0.-53,10.13,0.10,0.2,0.-9,0.-8,6.68,10.25,92539.92,758.71,0.0,0.0,0.0
34173,2,34173,0.-43,10.5,0.15,0.1,0.-16,0.-7,6.62,10.26,92536.66,758.91,0.0,0.0,0.0
34219,2,34219,0.-52,10.3,0.23,0.0,0.-20,0.-6,6.68,10.26,92538.80,758.3,0.0,0.0,0.0
34265,2,34265,-1.-9,9.8,0.13,0.1,0.-21,0.-8,6.62,10.26,92539.87,758.72,0.0,0.0,0.0
34311,2,34311,0.-69,10.5,0.-2,0.1,0.-15,0.-8,6.62,10.26,92540.99,758.81,0.0,0.0,0.0
34357,2,34357,0.-57,10.15,0.58,0.3,0.-9,0.-7,6.62,10.27,92531.17,758.91,0.0,0.0,0.0
34403,2,34403,0.-45,9.80,0.37,0.4,0.-11,0.-6,6.62,10.25,92532.29,758.91,0.0,0.0,0.0
34446,2,34446,0.-49,10.37,0.31,0.5,0.-10,0.-6,6.62,10.25,92533.36,759.20,0.0,0.0,0.0
34492,2,34492,0.-4,10.0,0.47,0.6,0.-9,0.-7,6.62,10.26,92535.54,759.10,0.0,0.0,0.0
34538,2,34538,0.-19,9.93,0.30,0.6,0.-9,0.-8,6.68,10.26,92542.10,758.71,0.0,0.0,0.0
34584,2,34584,0.-52,10.4,0.16,0.5,0.-10,0.-9,6.62,10.26,92539.92,758.61,0.0,0.0,0.0
34630,2,34630,0.-53,10.5,0.5,0.3,0.-11,0.-7,6.62,10.26,92545.35,759.0,0.0,0.0,0.0
34676,2,34676,0.-36,9.93,0.38,0.2,0.-14,0.-7,6.62,10.26,92542.0,759.1,0.0,0.0,0.0
34719,2,34719,0.-28,10.4,0.55,0.3,0.-11,0.-7,6.68,10.26,92545.35,758.91,0.0,0.0,0.0
34765,2,34765,0.-28,9.97,0.48,0.6,0.-9,0.-9,6.62,10.26,92537.73,758.33,0.0,0.0,0.0
34812,2,34812,0.-59,10.7,0.23,0.7,0.-8,0.-8,6.62,10.26,92533.36,759.1,0.0,0.0,0.0
34858,2,34858,0.-31,9.97,0.14,0.6,0.-11,0.-7,6.68,10.26,92535.54,758.62,0.0,0.0,0.0
34904,2,34904,0.-32,9.97,0.10,0.5,0.-15,0.-8,6.68,10.26,92538.80,758.81,0.0,0.0,0.0
34950,2,34950,0.-36,10.8,0.3,0.4,0.-16,0.-8,6.62,10.25,92530.6,758.32,0.0,0.0,0.0
34998,2,34998,0.-44,9.90,0.17,0.4,0.-18,0.-8,6.62,10.25,92534.48,758.71,0.0,0.0,0.0
35044,2,35044,0.-34,10.9,0.32,0.4,0.-20,0.-8,6.68,10.26,92539.92,758.71,0.0,0.0,0.0
35090,2,35090,0.-63,9.96,0.16,0.4,0.-18,0.-8,6.62,10.25,92535.54,758.23,0.0,0.0,0.0
35136,2,35136,0.-48,10.5,0.31,0.3,0.-9,0.-7,6.68,10.25,92534.48,758.81,0.0,0.0,0.0
35182,2,35182,0.-45,9.98,0.44,0.4,0.-14,0.-7,6.62,10.26,92538.75,758.42,0.0,0.0,0.0
35228,2,35228,0.-36,10.5,0.32,0.5,0.-9,0.-6,6.68,10.25,92538.80,759.10,0.0,0.0,0.0
35276,2,35276,0.-29,10.7,0.22,0.5,0.-11,0.-6,6.68,10.25,92534.48,759.40,0.0,0.0,0.0
35322,2,35322,0.-28,9.94,0.11,0.5,0.-11,0.-7,6.56,10.26,92536.66,758.72,0.0,0.0,0.0
35368,2,35368,0.-27,10.4,0.4,0.4,0.-11,0.-7,6.62,10.24,92535.54,758.62,0.0,0.0,0.0
35414,2,35414,0.-32,10.4,0.28,0.3,0.-16,0.-8,6.62,10.25,92535.50,758.42,0.0,0.0,0.0
35460,2,35460,0.-41,10.2,0.30,0.3,0.-16,0.-7,6.62,10.26,92540.99,759.30,0.0,0.0,0.0
35506,2,35506,0.-33,10.3,0.22,0.3,0.-14,0.-7,6.62,10.25,92540.99,758.81,0.0,0.0,0.0
35552,2,35554,0.-20,10.4,0.26,0.2,0.-11,0.-7,6.62,10.25,92539.92,758.22,0.0,0.0,0.0
35595,2,35595,0.-31,10.6,0.48,0.3,0.-13,0.-8,6.62,10.25,92538.85,758.71,0.0,0.0,0.0
35641,2,35641,0.-44,10.0,0.37,0.5,0.-10,0.-9,6.62,10.25,92536.66,758.61,0.0,0.0,0.0
35687,2,35687,0.-37,10.4,0.33,0.5,0.-8,0.-7,6.68,10.25,92537.73,758.42,0.0,0.0,0.0
35733,2,35733,0.-20,10.2,0.25,0.6,0.-8,0.-7,6.68,10.25,92529.3,759.20,0.0,0.0,0.0
35779,2,35779,0.-25,10.0,0.19,0.6,0.-9,0.-8,6.62,10.25,92542.15,758.52,0.0,0.0,0.0
35826,2,35826,0.-12,10.4,0.15,0.6,0.-8,0.-9,6.62,10.25,92535.60,758.90,0.0,0.0,0.0
35868,2,35868,0.-36,10.1,0.-14,0.4,0.-9,0.-10,6.62,10.25,92535.60,759.0,0.0,0.0,0.0
35914,2,35914,0.-62,10.6,0.13,0.2,0.-9,0.-7,6.68,10.26,92542.10,759.0,0.0,0.0,0.0
35960,2,35960,0.-20,9.99,0.22,0.2,0.-9,0.-7,6.62,10.25,92539.96,758.51,0.0,0.0,0.0
36006,2,36006,0.-33,10.2,0.31,0.2,0.-9,0.-7,6.62,10.25,92539.92,759.30,0.0,0.0,0.0
36052,2,36052,0.-11,10.4,0.47,0.3,0.-9,0.-7,6.62,10.25,92541.8,758.32,0.0,0.0,0.0
36098,2,36098,0.-66,9.85,0.48,0.4,0.-10,0.-8,6.62,10.24,92545.40,758.61,0.0,0.0,0.0
36141,2,36141,0.-20,10.6,0.42,0.6,0.-9,0.-6,6.62,10.24,92542.15,758.71,0.0,0.0,0.0
36187,2,36187,0.1,10.3,0.13,0.6,0.-8,0.-7,6.68,10.25,92541.8,759.10,0.0,0.0,0.0
36233,2,36233,0.-16,10.10,0.0,0.5,0.-8,0.-9,6.62,10.25,92539.96,758.90,0.0,0.0,0.0
36279,2,36279,0.-36,9.99,0.-14,0.3,0.-9,0.-10,6.62,10.25,92546.52,758.61,0.0,0.0,0.0
36325,2,36325,0.-18,10.16,0.18,0.1,0.-8,0.-9,6.62,10.25,92545.40,758.90,0.0,0.0,0.0
36371,2,36371,0.-17,10.3,0.44,0.1,0.-9,0.-10,6.62,10.25,92549.82,758.2,0.0,0.0,0.0
36414,2,36414,0.-49,9.91,0.55,0.3,0.-8,0.-10,6.62,10.24,92547.64,758.12,0.0,0.0,0.0
36460,2,36460,0.-65,10.44,0.25,0.4,0.-5,0.-9,6.62,10.24,92544.34,758.51,0.0,0.0,0.0
36506,2,36506,0.-44,9.85,0.29,0.3,0.-9,0.-7,6.62,10.24,92542.20,758.51,0.0,0.0,0.0
36552,2,36552,0.-31,10.2,0.40,0.4,0.-9,0.-7,6.62,10.24,92537.83,758.61,0.0,0.0,0.0
36598,2,36598,0.-25,10.5,0.36,0.5,0.-8,0.-7,6.62,10.25,92538.89,757.93,0.0,0.0,0.0
36644,2,36644,0.-24,10.10,0.0,0.6,0.-8,0.-8,6.68,10.24,92540.1,758.42,0.0,0.0,0.0
