millis(),currentState,Calculated flight time,Time since last log,IMUAcc.acceleration.x,IMUAcc.acceleration.y,IMUAcc.acceleration.z,IMUGyro.gyro.x,IMUGyro.gyro.y,IMUGyro.gyro.z,IMUTher.temperature,BARO.readTemperature,BARO.readPressure,BARO.readAltitude,orientation.actual.roll,orientation.actual.pitch,orientation.actual.yaw
693,2,693,693,3.66,8.66,3.98,0.-4,0.-9,0.-7,3.31,7.59,90888.7,907.71,0.0,0.0,0.0
744,2,744,51,3.86,8.65,3.57,0.1,0.-7,0.-11,3.25,7.61,90886.85,907.42,0.0,0.0,0.0
790,2,790,46,3.50,8.64,3.66,0.-2,0.-9,0.-13,3.12,7.63,90885.73,907.62,0.0,0.0,0.0
833,2,833,43,3.88,8.49,3.94,0.-4,0.-15,0.-12,3.18,7.65,90884.56,907.83,0.0,0.0,0.0
879,2,879,46,3.59,8.62,3.86,0.-4,0.-6,0.-12,3.18,7.65,90882.32,907.24,0.0,0.0,0.0
925,2,925,46,3.20,8.73,3.64,0.1,0.-10,0.-13,3.18,7.67,90879.4,907.84,0.0,0.0,0.0
971,2,971,46,3.39,8.66,3.98,0.1,0.-9,0.-7,3.12,7.66,90891.96,907.94,0.0,0.0,0.0
1018,2,1018,47,3.63,8.65,3.86,0.4,0.-8,0.-6,3.12,7.67,90885.44,907.55,0.0,0.0,0.0
1064,2,1064,46,3.45,8.65,3.45,0.4,0.0,0.-6,3.18,7.67,90886.56,907.94,0.0,0.0,0.0
1107,2,1107,43,3.69,8.57,4.8,0.2,0.1,0.-6,3.12,7.67,90878.92,907.74,0.0,0.0,0.0
1153,2,1153,46,4.7,8.12,4.36,0.6,0.-16,0.-16,3.18,7.67,90884.39,907.55,0.0,0.0,0.0
1199,2,1199,46,3.68,8.66,3.41,0.0,0.-8,0.-13,3.18,7.67,90886.50,907.65,0.0,0.0,0.0
1250,2,1250,51,2.97,8.68,3.90,0.-1,0.-10,0.-15,3.18,7.68,90883.27,907.55,0.0,0.0,0.0
1296,2,1296,46,3.37,8.61,4.0,0.0,0.-9,0.-14,3.12,7.68,90879.98,908.14,0.0,0.0,0.0
1342,2,1342,46,3.44,8.60,4.15,0.1,0.-12,0.-13,3.6,7.67,90898.30,907.75,0.0,0.0,0.0
1385,2,1385,43,3.81,8.47,4.9,0.5,0.-8,0.-9,3.12,7.68,90884.27,907.85,0.0,0.0,0.0
1431,2,1431,46,3.48,8.64,3.81,0.5,0.-9,0.-9,3.18,7.69,90887.50,907.56,0.0,0.0,0.0
1477,2,1477,46,3.51,8.59,3.86,0.4,0.-9,0.-8,3.18,7.68,90882.10,907.95,0.0,0.0,0.0
1523,2,1523,46,3.42,8.60,3.59,0.5,0.-9,0.-10,3.18,7.68,90889.67,907.46,0.0,0.0,0.0
1569,2,1569,46,3.65,8.61,3.51,0.0,0.-8,0.-12,3.18,7.69,90886.44,907.46,0.0,0.0,0.0
1615,2,1615,46,3.42,8.61,4.16,0.-3,0.-9,0.-13,3.12,7.68,90881.3,907.56,0.0,0.0,0.0
1658,2,1658,43,3.23,8.57,4.42,0.0,0.-9,0.-11,3.12,7.68,90883.15,907.66,0.0,0.0,0.0
1704,2,1704,46,3.51,8.66,4.3,0.7,0.-9,0.-7,3.18,7.69,90889.73,907.36,0.0,0.0,0.0
1755,2,1755,51,3.54,8.58,3.85,0.3,0.-9,0.-9,3.18,7.68,90881.10,907.95,0.0,0.0,0.0
1801,2,1801,46,3.56,8.58,3.88,0.3,0.-11,0.-10,3.18,7.68,90883.21,907.55,0.0,0.0,0.0
1847,2,1847,46,3.67,8.62,4.28,0.4,0.-9,0.-11,3.18,7.68,90886.44,907.75,0.0,0.0,0.0
1893,2,1893,46,4.7,8.0,2.68,0.7,0.-34,0.-16,3.18,7.69,90889.73,908.44,0.0,0.0,0.0
1942,2,1942,49,3.38,8.54,4.14,0.-3,0.-7,0.-13,3.18,7.68,90889.73,908.24,0.0,0.0,0.0
1988,2,1988,46,3.62,8.54,4.20,0.0,0.-4,0.-12,3.18,7.68,90886.44,907.95,0.0,0.0,0.0
2035,2,2035,47,3.46,8.67,4.26,0.3,0.-12,0.-15,3.25,7.68,90890.78,908.5,0.0,0.0,0.0
2081,2,2081,46,3.36,8.90,3.19,0.4,0.-9,0.-23,3.25,7.68,90879.98,907.6,0.0,0.0,0.0
2127,2,2127,46,3.80,8.82,4.2,0.0,0.-11,0.-24,3.18,7.68,90889.73,907.65,0.0,0.0,0.0
2173,2,2173,46,0.65,15.73,6.89,0.-14,0.-82,0.-64,3.18,7.68,90885.38,907.85,0.0,0.0,0.0
2222,2,2222,49,2.26,8.81,4.73,0.-15,0.-6,0.-22,3.18,7.68,90883.27,907.95,0.0,0.0,0.0
2273,2,2273,51,3.44,8.60,4.79,0.5,0.-10,0.-9,3.18,7.67,90889.78,907.45,0.0,0.0,0.0
2319,2,2319,46,3.39,8.69,3.79,0.10,0.-9,0.-5,3.12,7.67,90889.67,907.6,0.0,0.0,0.0
2365,2,2365,46,3.56,8.63,3.93,0.9,0.-9,0.-7,3.6,7.68,90885.32,907.36,0.0,0.0,0.0
2411,2,2411,46,3.61,8.68,4.7,0.12,0.-10,0.-6,3.12,7.68,90881.3,907.56,0.0,0.0,0.0
2457,2,2457,46,2.94,8.58,4.13,0.19,0.-10,0.-4,2.93,7.68,90888.67,907.65,0.0,0.0,0.0
2503,2,2503,46,3.39,8.79,3.0,0.22,0.-6,0.0,3.6,7.68,90884.27,907.95,0.0,0.0,0.0
2546,2,2546,43,3.88,8.58,3.50,0.6,0.1,0.-4,3.6,7.68,90886.44,907.56,0.0,0.0,0.0
2592,2,2592,46,3.9,8.62,4.73,0.10,0.3,0.-5,3.6,7.68,90884.27,908.54,0.0,0.0,0.0
2638,2,2638,46,3.58,8.64,3.24,0.17,0.-1,0.1,3.12,7.68,90883.21,908.4,0.0,0.0,0.0
2684,2,2684,46,3.83,8.64,3.48,0.3,0.-6,0.-9,3.6,7.69,90883.21,908.44,0.0,0.0,0.0
2730,2,2730,46,3.35,8.81,3.78,0.-2,0.-1,0.-12,3.0,7.69,90879.92,907.85,0.0,0.0,0.0
2781,2,2781,51,3.19,8.50,4.7,0.1,0.-13,0.-12,3.6,7.69,90893.2,907.85,0.0,0.0,0.0
2825,2,2825,44,3.27,8.80,3.62,0.3,0.-5,0.-11,3.0,7.67,90886.50,907.45,0.0,0.0,0.0
2871,2,2871,46,3.52,8.62,3.83,0.0,0.-22,0.-12,3.6,7.68,90887.56,908.24,0.0,0.0,0.0
2917,2,2917,46,3.43,8.73,3.52,0.0,0.-15,0.-9,3.0,7.69,90884.27,907.95,0.0,0.0,0.0
2963,2,2963,46,3.50,8.64,3.68,0.-14,0.-62,0.-15,3.0,7.69,90886.38,907.76,0.0,0.0,0.0
3009,2,3009,46,3.23,8.63,3.65,0.-12,0.-12,0.-17,3.12,7.68,90886.38,907.85,0.0,0.0,0.0
3056,2,3056,47,3.9,8.61,4.18,0.-9,0.0,0.-14,3.0,7.69,90887.56,907.26,0.0,0.0,0.0
3099,2,3099,43,2.36,8.67,5.35,0.-10,0.-18,0.-17,3.6,7.69,90883.15,908.5,0.0,0.0,0.0
3145,2,3145,46,3.40,8.56,4.7,0.5,0.-24,0.-8,3.0,7.69,90882.3,907.76,0.0,0.0,0.0
3191,2,3191,46,3.57,8.54,4.49,0.8,0.-12,0.-11,3.0,7.69,90888.55,907.85,0.0,0.0,0.0
3237,2,3237,46,3.63,8.59,4.12,0.15,0.-12,0.-14,3.0,7.69,90890.73,907.76,0.0,0.0,0.0
3298,2,3298,61,0.84,8.75,4.26,0.14,0.-18,0.-26,3.6,7.68,90889.73,907.95,0.0,0.0,0.0
3344,2,3344,46,3.6,8.75,4.38,0.11,0.-11,0.-10,3.0,7.68,90884.39,908.14,0.0,0.0,0.0
3404,2,3404,60,3.65,8.74,3.55,0.10,0.-10,0.-8,3.6,7.67,90885.44,907.75,0.0,0.0,0.0
3450,2,3450,46,3.11,8.80,3.65,0.5,0.-7,0.-6,3.12,7.68,90886.50,907.66,0.0,0.0,0.0
3496,2,3496,46,3.26,8.68,4.46,0.14,0.12,0.-1,3.12,7.69,90888.55,907.56,0.0,0.0,0.0
3542,2,3542,46,3.70,8.78,4.23,0.22,0.19,0.0,3.6,7.69,90891.78,907.66,0.0,0.0,0.0
3588,2,3588,46,3.63,8.35,3.95,0.20,0.4,0.-2,3.12,7.70,90888.55,907.86,0.0,0.0,0.0
3634,2,3634,46,3.35,8.81,2.88,0.14,0.-9,0.-10,3.6,7.69,90887.44,908.55,0.0,0.0,0.0
3684,2,3684,50,3.45,8.74,4.4,0.1,0.-8,0.-8,3.12,7.70,90878.75,907.7,0.0,0.0,0.0
3730,2,3730,46,3.27,8.40,4.12,0.7,0.-8,0.-10,3.6,7.70,90887.44,907.27,0.0,0.0,0.0
3776,2,3776,46,3.21,8.65,4.26,0.16,0.8,0.-5,3.12,7.71,90885.27,907.86,0.0,0.0,0.0
3828,2,3828,52,3.28,8.72,3.45,0.16,0.3,0.-1,3.6,7.69,90891.78,908.15,0.0,0.0,0.0
3874,2,3874,46,3.81,8.63,3.67,0.10,0.6,0.-5,3.6,7.70,90879.80,907.46,0.0,0.0,0.0
3920,2,3920,46,3.64,8.63,4.15,0.10,0.-10,0.-9,3.6,7.71,90886.32,907.96,0.0,0.0,0.0
3969,2,3969,49,3.26,8.86,3.41,0.16,0.-6,0.-8,3.0,7.71,90888.50,907.66,0.0,0.0,0.0
4015,2,4015,46,3.34,8.74,3.79,0.12,0.5,0.-1,3.6,7.71,90884.15,907.37,0.0,0.0,0.0
4062,2,4062,47,3.50,8.85,3.40,0.12,0.-7,0.-7,3.0,7.70,90881.98,907.57,0.0,0.0,0.0
4108,2,4108,46,3.46,8.81,3.24,0.8,0.-4,0.-7,3.6,7.70,90883.3,908.6,0.0,0.0,0.0
4154,2,4154,46,3.23,8.82,3.73,0.2,0.-13,0.-5,3.6,7.71,90891.72,907.47,0.0,0.0,0.0
4200,2,4200,46,3.75,8.67,4.5,0.9,0.-16,0.-1,3.6,7.71,90889.55,907.67,0.0,0.0,0.0
4246,2,4246,46,3.57,8.78,3.67,0.15,0.-5,0.-4,3.6,7.71,90888.50,907.7,0.0,0.0,0.0
4289,2,4289,43,4.10,8.79,2.77,0.18,0.7,0.-7,3.6,7.71,90889.55,907.47,0.0,0.0,0.0
4340,2,4340,51,3.56,8.77,3.53,0.1,0.31,0.-16,3.18,7.70,90885.21,907.86,0.0,0.0,0.0
4386,2,4386,46,3.36,8.67,4.36,0.1,0.-10,0.-11,3.25,7.71,90891.72,907.57,0.0,0.0,0.0
4432,2,4432,46,4.85,8.12,3.93,0.7,0.-60,0.-15,3.12,7.71,90884.15,908.26,0.0,0.0,0.0
4478,2,4478,46,2.76,9.5,2.98,0.0,0.-4,0.-1,3.18,7.71,90889.55,907.76,0.0,0.0,0.0
4524,2,4524,46,4.4,8.58,4.5,0.9,0.60,0.1,3.6,7.70,90879.86,907.76,0.0,0.0,0.0
4567,2,4567,43,3.8,8.84,3.28,0.3,0.-9,0.-10,3.12,7.71,90886.32,908.6,0.0,0.0,0.0
4613,2,4613,46,3.35,8.77,3.56,0.2,0.-12,0.-9,3.6,7.71,90887.38,908.16,0.0,0.0,0.0
4659,2,4659,46,3.66,8.81,2.84,0.-6,0.-40,0.-14,3.12,7.71,90885.27,907.96,0.0,0.0,0.0
4705,2,4705,46,3.32,8.80,3.26,0.-15,0.-33,0.-16,3.12,7.71,90885.21,907.47,0.0,0.0,0.0
4751,2,4751,46,3.14,8.74,3.77,0.-23,0.-43,0.-12,3.12,7.71,90884.15,908.55,0.0,0.0,0.0
4797,2,4797,46,3.47,8.69,4.36,0.0,0.-12,0.-14,3.18,7.71,90880.92,908.16,0.0,0.0,0.0
4846,2,4846,49,3.40,8.67,4.3,0.8,0.-11,0.-11,3.18,7.69,90882.3,907.86,0.0,0.0,0.0
4892,2,4892,46,3.43,8.70,3.65,0.13,0.-6,0.-8,3.18,7.70,90885.27,907.57,0.0,0.0,0.0
4938,2,4938,46,3.79,8.67,3.46,0.8,0.-9,0.-8,3.18,7.71,90883.9,908.6,0.0,0.0,0.0
4984,2,4984,46,3.80,8.67,3.70,0.5,0.-8,0.-15,3.25,7.71,90884.9,908.6,0.0,0.0,0.0
5030,2,5030,46,3.21,8.76,3.65,0.6,0.-6,0.-16,3.25,7.71,90884.9,908.6,0.0,0.0,0.0
5077,2,5077,47,3.45,8.69,3.77,0.6,0.-9,0.-12,3.12,7.70,90892.84,907.57,0.0,0.0,0.0
5124,2,5124,47,3.56,8.75,3.68,0.5,0.-8,0.-10,3.18,7.71,90885.21,907.46,0.0,0.0,0.0
5170,2,5170,46,3.46,8.71,3.78,0.6,0.-5,0.-11,3.12,7.71,90885.21,907.67,0.0,0.0,0.0
5216,2,5216,46,3.21,8.79,3.60,0.6,0.-8,0.-10,3.25,7.71,90881.98,907.38,0.0,0.0,0.0
5262,2,5262,46,3.46,8.78,3.79,0.7,0.-4,0.-8,3.12,7.71,90881.98,907.47,0.0,0.0,0.0
5308,2,5308,46,3.23,8.55,3.17,0.4,0.-3,0.-6,3.18,7.72,90882.97,907.47,0.0,0.0,0.0
5369,2,5369,61,3.61,8.65,3.89,0.-2,0.-12,0.-2,3.12,7.70,90888.55,908.16,0.0,0.0,0.0
5412,2,5412,43,3.71,8.70,3.67,0.3,0.5,0.-10,3.12,7.70,90883.9,907.46,0.0,0.0,0.0
5458,2,5458,46,3.90,8.65,3.79,0.7,0.33,0.-11,3.12,7.70,90889.55,907.87,0.0,0.0,0.0
5504,2,5504,46,3.18,8.70,4.1,0.4,0.-10,0.-14,3.6,7.70,90890.61,908.16,0.0,0.0,0.0
5550,2,5550,46,3.51,8.51,4.6,0.6,0.-38,0.-15,3.12,7.71,90893.78,907.67,0.0,0.0,0.0
5596,2,5596,46,3.57,8.70,3.31,0.4,0.-34,0.-14,3.6,7.72,90886.26,907.97,0.0,0.0,0.0
5642,2,5642,46,3.48,8.73,3.84,0.4,0.-12,0.-15,3.0,7.72,90888.38,907.28,0.0,0.0,0.0
5685,2,5685,43,3.12,8.73,3.90,0.6,0.-9,0.-11,3.6,7.72,90884.3,907.58,0.0,0.0,0.0
5731,2,5731,46,3.58,8.72,3.49,0.7,0.-9,0.-9,3.6,7.73,90880.75,908.17,0.0,0.0,0.0
5777,2,5777,46,3.40,8.78,3.68,0.4,0.-9,0.-10,3.0,7.73,90888.38,907.97,0.0,0.0,0.0
5823,2,5823,46,3.39,8.78,3.59,0.4,0.-9,0.-9,3.6,7.73,90887.26,907.87,0.0,0.0,0.0
5875,2,5875,52,3.43,8.73,3.81,0.4,0.-8,0.-8,3.0,7.72,90878.69,907.67,0.0,0.0,0.0
5921,2,5921,46,3.58,8.81,3.43,0.3,0.-10,0.-10,3.0,7.72,90888.38,907.28,0.0,0.0,0.0
5970,2,5970,49,3.51,8.86,3.70,0.-1,0.-14,0.-14,3.0,7.71,90881.86,907.77,0.0,0.0,0.0
6016,2,6016,46,3.77,8.14,4.12,0.-2,0.-12,0.-15,3.6,7.72,90889.43,907.87,0.0,0.0,0.0
6062,2,6062,46,3.24,8.70,3.77,0.2,0.-12,0.-12,3.0,7.72,90883.3,908.17,0.0,0.0,0.0
6109,2,6109,47,3.31,8.70,4.7,0.6,0.-9,0.-10,3.0,7.72,90885.9,907.77,0.0,0.0,0.0
6155,2,6155,46,3.46,8.75,3.26,0.6,0.-9,0.-10,3.6,7.73,90886.21,907.58,0.0,0.0,0.0
6201,2,6201,46,3.53,8.74,3.70,0.0,0.-9,0.-10,3.6,7.73,90887.26,907.77,0.0,0.0,0.0
6247,2,6247,46,3.48,8.76,3.90,0.2,0.-8,0.-10,3.6,7.73,90881.92,907.87,0.0,0.0,0.0
6290,2,6290,43,3.43,8.63,3.67,0.5,0.-10,0.-10,3.0,7.72,90889.50,907.37,0.0,0.0,0.0
6336,2,6336,46,3.30,8.79,3.94,0.8,0.-10,0.-10,3.6,7.72,90886.21,907.88,0.0,0.0,0.0
6387,2,6387,51,3.6,8.93,3.73,0.9,0.-9,0.-5,3.6,7.72,90890.55,907.47,0.0,0.0,0.0
6433,2,6433,46,3.29,8.81,3.39,0.1,0.-10,0.-9,3.6,7.73,90891.60,908.7,0.0,0.0,0.0
6479,2,6479,46,3.44,8.72,3.93,0.0,0.-9,0.-12,3.6,7.73,90890.55,908.27,0.0,0.0,0.0
6525,2,6525,46,3.17,9.30,2.84,0.2,0.-8,0.-12,3.6,7.72,90886.21,907.77,0.0,0.0,0.0
6568,2,6568,43,3.23,8.58,4.19,0.0,0.-12,0.-10,3.12,7.72,90885.9,908.37,0.0,0.0,0.0
6614,2,6614,46,3.29,8.76,4.4,0.6,0.-8,0.-10,3.18,7.73,90882.92,908.17,0.0,0.0,0.0
6660,2,6660,46,3.30,8.72,3.64,0.6,0.-5,0.-8,3.12,7.73,90891.67,907.97,0.0,0.0,0.0
6706,2,6706,46,3.43,8.67,3.64,0.8,0.1,0.-5,3.6,7.74,90880.75,907.88,0.0,0.0,0.0
6752,2,6752,46,5.11,8.97,4.11,0.6,0.-4,0.-11,3.6,7.73,90886.21,907.88,0.0,0.0,0.0
6798,2,6798,46,3.49,8.73,3.93,0.9,0.-9,0.-11,3.12,7.73,90880.75,908.16,0.0,0.0,0.0
6841,2,6841,43,3.38,8.69,3.9,0.6,0.-11,0.-9,3.12,7.73,90884.3,907.68,0.0,0.0,0.0
6892,2,6892,51,3.53,8.17,4.5,0.1,0.-10,0.-11,3.18,7.72,90887.32,907.38,0.0,0.0,0.0
6938,2,6938,46,3.27,8.87,3.50,0.-1,0.-12,0.-10,3.12,7.73,90892.72,907.77,0.0,0.0,0.0
6984,2,6984,46,3.26,8.73,4.21,0.0,0.-15,0.-10,3.12,7.72,90892.67,907.88,0.0,0.0,0.0
7030,2,7030,46,3.44,8.64,3.64,0.2,0.-11,0.-9,3.12,7.73,90887.26,907.58,0.0,0.0,0.0
7076,2,7076,46,3.46,8.74,3.46,0.2,0.-11,0.-8,3.12,7.73,90885.9,907.58,0.0,0.0,0.0
7120,2,7120,44,3.31,8.75,4.20,0.1,0.-14,0.-6,3.12,7.73,90881.86,908.47,0.0,0.0,0.0
7166,2,7166,46,3.95,8.66,3.80,0.6,0.-10,0.-8,3.12,7.74,90886.14,907.48,0.0,0.0,0.0
7212,2,7212,46,3.83,8.68,3.63,0.7,0.-9,0.-15,3.12,7.73,90881.86,908.47,0.0,0.0,0.0
7258,2,7258,46,3.10,8.70,3.36,0.0,0.-17,0.-17,3.12,7.74,90886.14,908.37,0.0,0.0,0.0
7304,2,7304,46,2.98,8.69,4.11,0.1,0.-10,0.-12,3.12,7.73,90886.14,907.98,0.0,0.0,0.0
7350,2,7350,46,3.22,8.71,3.79,0.5,0.-8,0.-8,3.12,7.73,90882.92,908.46,0.0,0.0,0.0
7410,2,7410,60,3.42,8.62,3.85,0.3,0.-8,0.-9,3.18,7.71,90885.21,907.87,0.0,0.0,0.0
7456,2,7456,46,3.34,8.76,3.87,0.4,0.-8,0.-9,3.12,7.72,90888.38,908.37,0.0,0.0,0.0
7502,2,7502,46,3.43,8.46,4.19,0.6,0.-9,0.-10,3.12,7.73,90882.92,908.7,0.0,0.0,0.0
7548,2,7548,46,3.61,8.66,3.63,0.9,0.-9,0.-8,3.12,7.73,90885.9,908.18,0.0,0.0,0.0
7594,2,7594,46,3.29,8.77,3.72,0.5,0.-8,0.-12,3.6,7.73,90882.85,908.28,0.0,0.0,0.0
7640,2,7640,46,3.18,8.68,3.75,0.5,0.-9,0.-7,3.0,7.74,90881.80,908.8,0.0,0.0,0.0
7689,2,7689,49,3.51,8.66,4.16,0.7,0.-4,0.-7,3.6,7.73,90883.97,908.18,0.0,0.0,0.0
7735,2,7735,46,3.30,8.59,3.63,0.8,0.-7,0.-8,3.0,7.73,90889.38,908.27,0.0,0.0,0.0
7781,2,7781,46,3.31,9.10,4.37,0.13,0.0,0.-6,2.87,7.74,90882.85,907.59,0.0,0.0,0.0
7827,2,7827,46,3.45,8.98,3.9,0.17,0.1,0.-7,2.93,7.74,90880.75,908.8,0.0,0.0,0.0
7873,2,7873,46,3.2,8.72,3.94,0.4,0.-9,0.-9,3.0,7.74,90883.92,908.18,0.0,0.0,0.0
7925,2,7925,52,4.4,8.65,4.36,0.9,0.-5,0.-7,3.0,7.73,90886.9,907.78,0.0,0.0,0.0
7971,2,7971,46,2.90,8.77,3.32,0.10,0.-8,0.-13,3.0,7.73,90885.3,907.88,0.0,0.0,0.0
8014,2,8014,43,3.33,8.75,3.51,0.5,0.-6,0.-5,3.0,7.73,90890.43,908.8,0.0,0.0,0.0
8060,2,8060,46,3.77,8.71,3.85,0.6,0.1,0.-6,3.0,7.74,90877.46,908.18,0.0,0.0,0.0
8106,2,8106,46,3.32,8.76,3.77,0.6,0.-9,0.-11,3.0,7.74,90886.9,907.49,0.0,0.0,0.0
8153,2,8153,47,3.31,8.74,3.64,0.5,0.-8,0.-9,3.0,7.74,90887.14,907.29,0.0,0.0,0.0
8199,2,8199,46,3.56,8.74,3.99,0.5,0.0,0.-7,3.6,7.74,90882.80,908.18,0.0,0.0,0.0
8245,2,8245,46,3.41,8.72,3.92,0.5,0.1,0.-7,3.6,7.73,90889.38,907.78,0.0,0.0,0.0
8288,2,8288,43,3.67,8.69,3.55,0.7,0.-5,0.-9,3.6,7.74,90881.80,908.18,0.0,0.0,0.0
8334,2,8334,46,3.41,8.78,3.49,0.1,0.-9,0.-12,3.12,7.74,90881.80,907.88,0.0,0.0,0.0
8380,2,8380,46,3.49,8.64,3.93,0.-3,0.-9,0.-10,3.12,7.75,90883.85,908.67,0.0,0.0,0.0
8431,2,8431,51,3.31,8.76,4.9,0.3,0.-9,0.-12,3.18,7.74,90880.68,907.88,0.0,0.0,0.0
8477,2,8477,46,3.46,8.34,3.84,0.5,0.-9,0.-10,3.25,7.74,90881.75,908.8,0.0,0.0,0.0
8523,2,8523,46,3.27,8.73,4.13,0.9,0.-8,0.-8,3.25,7.74,90891.55,908.28,0.0,0.0,0.0
8566,2,8566,43,3.59,8.47,3.54,0.12,0.-9,0.-6,3.31,7.74,90877.39,907.78,0.0,0.0,0.0
8612,2,8612,46,3.62,8.91,3.53,0.6,0.-8,0.-12,3.25,7.74,90883.92,907.78,0.0,0.0,0.0
8658,2,8658,46,3.13,8.71,3.98,0.0,0.-8,0.-11,3.31,7.74,90880.63,907.78,0.0,0.0,0.0
8704,2,8704,46,3.64,8.68,4.26,0.5,0.-9,0.-9,3.31,7.74,90883.92,907.78,0.0,0.0,0.0
8750,2,8750,46,3.20,8.78,3.48,0.9,0.-8,0.-9,3.37,7.74,90886.9,907.89,0.0,0.0,0.0
8796,2,8796,46,3.46,8.74,3.14,0.3,0.-9,0.-9,3.37,7.75,90889.26,908.18,0.0,0.0,0.0
8839,2,8839,43,3.39,8.77,3.88,0.-1,0.-9,0.-10,3.37,7.75,90888.20,907.89,0.0,0.0,0.0
8885,2,8885,46,3.45,8.66,4.1,0.1,0.-9,0.-9,3.25,7.76,90882.80,907.89,0.0,0.0,0.0
8936,2,8936,51,3.34,8.69,4.7,0.8,0.-9,0.-8,3.31,7.75,90884.97,908.68,0.0,0.0,0.0
8982,2,8982,46,3.46,8.68,3.41,0.9,0.-5,0.-7,3.31,7.74,90883.92,907.89,0.0,0.0,0.0
9028,2,9028,46,3.48,8.68,3.55,0.4,0.-4,0.-7,3.37,7.75,90884.97,907.99,0.0,0.0,0.0
9074,2,9074,46,3.90,8.65,3.68,0.0,0.-6,0.-10,3.25,7.75,90888.20,907.69,0.0,0.0,0.0
9123,2,9123,49,3.15,8.68,3.88,0.0,0.-8,0.-14,3.31,7.74,90887.14,908.28,0.0,0.0,0.0
9170,2,9170,47,3.24,8.70,4.34,0.7,0.-14,0.-9,3.31,7.75,90881.68,907.78,0.0,0.0,0.0
9216,2,9216,46,3.22,8.71,3.69,0.13,0.-9,0.-5,3.25,7.74,90882.74,907.89,0.0,0.0,0.0
9262,2,9262,46,4.23,8.62,3.68,0.9,0.11,0.0,3.25,7.75,90886.9,908.58,0.0,0.0,0.0
9308,2,9308,46,3.62,8.66,3.74,0.0,0.-1,0.-12,3.31,7.75,90883.92,908.48,0.0,0.0,0.0
9354,2,9354,46,3.42,8.70,3.71,0.-3,0.-19,0.-16,3.31,7.75,90881.68,907.69,0.0,0.0,0.0
9403,2,9403,49,3.26,8.68,3.76,0.-3,0.-13,0.-15,3.25,7.75,90882.80,908.18,0.0,0.0,0.0
9455,2,9455,52,3.22,8.69,3.94,0.-3,0.-9,0.-12,3.37,7.74,90882.80,907.89,0.0,0.0,0.0
9501,2,9501,46,2.85,8.71,4.43,0.0,0.-12,0.-11,3.25,7.74,90882.74,907.89,0.0,0.0,0.0
9547,2,9547,46,3.43,8.70,3.92,0.13,0.-5,0.-4,3.31,7.74,90888.14,907.49,0.0,0.0,0.0
9593,2,9593,46,3.51,8.69,3.56,0.12,0.-2,0.-8,3.31,7.75,90882.80,907.59,0.0,0.0,0.0
9639,2,9639,46,3.56,8.70,3.56,0.4,0.-7,0.-10,3.37,7.76,90881.68,907.30,0.0,0.0,0.0
9692,2,9692,53,3.34,8.70,3.89,0.1,0.-7,0.-12,3.25,7.74,90880.63,907.98,0.0,0.0,0.0
9738,2,9738,46,3.48,8.67,3.98,0.1,0.-8,0.-10,3.25,7.75,90880.63,908.29,0.0,0.0,0.0
9784,2,9784,46,3.57,8.67,3.77,0.0,0.-2,0.-11,3.25,7.76,90888.14,907.89,0.0,0.0,0.0
9830,2,9830,46,3.2,8.67,4.14,0.0,0.-7,0.-12,3.31,7.75,90881.68,908.28,0.0,0.0,0.0
9876,2,9876,46,3.29,8.67,4.0,0.4,0.-9,0.-8,3.25,7.76,90881.68,908.8,0.0,0.0,0.0
9922,2,9922,46,3.45,8.65,3.75,0.4,0.-9,0.-9,3.25,7.76,90882.74,908.9,0.0,0.0,0.0
9981,2,9981,59,3.41,8.68,4.7,0.2,0.-6,0.-8,3.25,7.75,90881.75,907.68,0.0,0.0,0.0
10024,2,10024,43,3.62,8.71,4.22,0.5,0.-9,0.-10,3.25,7.74,90889.32,907.89,0.0,0.0,0.0
10070,2,10070,46,3.27,8.49,3.98,0.2,0.-9,0.-12,3.31,7.75,90879.57,908.38,0.0,0.0,0.0
10116,2,10116,46,3.15,8.66,4.0,0.6,0.-10,0.-9,3.37,7.74,90882.80,907.60,0.0,0.0,0.0
10162,2,10162,46,3.25,8.64,4.25,0.9,0.-9,0.-10,3.31,7.76,90888.20,908.29,0.0,0.0,0.0
10209,2,10209,47,3.45,8.63,3.75,0.10,0.-8,0.-10,3.37,7.75,90884.91,908.9,0.0,0.0,0.0
10255,2,10255,46,3.62,8.74,2.90,0.2,0.-7,0.-9,3.37,7.76,90880.57,907.79,0.0,0.0,0.0
10298,2,10298,43,2.13,8.81,4.50,0.-1,0.-8,0.-5,3.31,7.75,90881.62,907.89,0.0,0.0,0.0
10344,2,10344,46,3.27,8.49,5.7,0.4,0.32,0.12,3.31,7.75,90880.57,907.50,0.0,0.0,0.0
10390,2,10390,46,3.44,8.75,3.71,0.8,0.-9,0.-12,3.37,7.75,90887.9,907.99,0.0,0.0,0.0
10436,2,10436,46,3.22,8.67,4.13,0.9,0.-9,0.-8,3.37,7.76,90888.14,908.59,0.0,0.0,0.0
10489,2,10489,53,3.70,8.60,3.76,0.9,0.-9,0.-8,3.31,7.75,90882.80,907.40,0.0,0.0,0.0
10535,2,10535,46,3.41,8.67,3.68,0.6,0.-10,0.-9,3.37,7.74,90879.51,908.48,0.0,0.0,0.0
10578,2,10578,43,3.64,8.61,3.71,0.3,0.-8,0.-10,3.37,7.75,90891.43,907.40,0.0,0.0,0.0
10624,2,10624,46,3.56,8.67,3.37,0.1,0.-7,0.-13,3.37,7.75,90885.97,907.99,0.0,0.0,0.0
10670,2,10670,46,3.3,8.64,3.88,0.-5,0.-9,0.-15,3.43,7.76,90881.62,908.19,0.0,0.0,0.0
10716,2,10716,46,3.38,8.59,4.40,0.-3,0.-2,0.-8,3.43,7.77,90887.3,907.60,0.0,0.0,0.0
10762,2,10762,46,3.31,8.59,4.78,0.4,0.-9,0.-9,3.43,7.76,90887.3,907.99,0.0,0.0,0.0
10808,2,10808,46,3.50,8.61,4.10,0.16,0.-10,0.-4,3.37,7.75,90884.97,908.29,0.0,0.0,0.0
10851,2,10851,43,3.44,8.61,3.65,0.10,0.-31,0.-9,3.50,7.75,90886.3,907.89,0.0,0.0,0.0
10897,2,10897,46,3.67,8.65,3.26,0.10,0.-9,0.-8,3.56,7.75,90890.32,908.9,0.0,0.0,0.0
10943,2,10943,46,3.70,8.68,3.64,0.-3,0.-9,0.-14,3.50,7.77,90884.91,907.60,0.0,0.0,0.0
10994,2,10994,51,3.8,8.55,4.59,0.-5,0.-8,0.-14,3.50,7.75,90885.97,908.9,0.0,0.0,0.0
11040,2,11040,46,3.40,8.59,4.59,0.6,0.-9,0.-7,3.50,7.76,90892.49,908.9,0.0,0.0,0.0
11086,2,11086,46,3.37,8.64,3.91,0.9,0.-3,0.-7,3.56,7.76,90883.92,907.98,0.0,0.0,0.0
11142,2,11142,56,3.52,8.62,3.78,0.6,0.-8,0.-11,3.62,7.75,90880.63,907.79,0.0,0.0,0.0
11188,2,11188,46,3.34,8.65,3.69,0.2,0.-9,0.-10,3.56,7.75,90884.91,907.79,0.0,0.0,0.0
11235,2,11235,47,3.34,8.60,4.35,0.3,0.-9,0.-9,3.62,7.75,90890.32,907.99,0.0,0.0,0.0
11281,2,11281,46,3.45,8.63,3.82,0.7,0.-7,0.-7,3.62,7.76,90880.57,907.60,0.0,0.0,0.0
11327,2,11327,46,3.25,8.62,3.96,0.6,0.-9,0.-9,3.56,7.75,90879.45,907.69,0.0,0.0,0.0
11373,2,11373,46,3.59,8.66,3.63,0.5,0.-9,0.-9,3.56,7.76,90887.9,908.29,0.0,0.0,0.0
11417,2,11417,44,3.64,8.58,3.69,0.0,0.-8,0.-13,3.56,7.76,90887.3,907.90,0.0,0.0,0.0
11463,2,11463,46,3.30,8.59,4.20,0.-3,0.-8,0.-13,3.62,7.76,90881.62,908.9,0.0,0.0,0.0
11515,2,11515,52,3.36,8.59,4.51,0.3,0.-11,0.-7,3.62,7.76,90882.74,908.19,0.0,0.0,0.0
11561,2,11561,46,3.73,8.54,4.36,0.7,0.-11,0.-6,3.62,7.76,90888.14,907.70,0.0,0.0,0.0
11607,2,11607,46,3.25,8.60,4.13,0.11,0.-5,0.-7,3.62,7.76,90883.80,908.39,0.0,0.0,0.0
11653,2,11653,46,4.11,8.22,3.67,0.12,0.0,0.-3,3.62,7.77,90881.62,907.99,0.0,0.0,0.0
11696,2,11696,43,3.57,8.63,3.75,0.1,0.-5,0.-10,3.62,7.76,90887.3,907.89,0.0,0.0,0.0
11742,2,11742,46,3.28,8.64,4.11,0.1,0.-10,0.-10,3.56,7.76,90883.80,908.9,0.0,0.0,0.0
11788,2,11788,46,3.48,8.64,3.96,0.4,0.-10,0.-8,3.62,7.77,90888.8,908.9,0.0,0.0,0.0
11834,2,11834,46,3.52,8.62,4.9,0.4,0.-7,0.-10,3.62,7.77,90885.91,907.11,0.0,0.0,0.0
11880,2,11880,46,3.41,8.62,3.96,0.4,0.-11,0.-11,3.62,7.77,90882.62,908.0,0.0,0.0,0.0
11926,2,11926,46,3.46,8.59,3.97,0.2,0.-12,0.-13,3.62,7.76,90888.8,907.80,0.0,0.0,0.0
11970,2,11970,44,3.19,8.63,4.18,0.4,0.-9,0.-9,3.62,7.77,90882.68,907.40,0.0,0.0,0.0
12031,2,12031,61,3.37,8.62,3.90,0.5,0.-9,0.-9,3.62,7.75,90889.26,907.89,0.0,0.0,0.0
12077,2,12077,46,3.26,8.66,3.99,0.4,0.-9,0.-10,3.56,7.76,90890.26,908.9,0.0,0.0,0.0
12123,2,12123,46,3.48,8.62,3.99,0.4,0.-9,0.-10,3.62,7.76,90887.3,907.11,0.0,0.0,0.0
12169,2,12169,46,3.36,8.64,4.3,0.5,0.-10,0.-9,3.56,7.76,90887.3,908.9,0.0,0.0,0.0
12215,2,12215,46,3.39,8.65,4.3,0.7,0.-9,0.-8,3.56,7.76,90882.68,908.9,0.0,0.0,0.0
12259,2,12259,44,3.50,8.60,3.87,0.6,0.-7,0.-9,3.62,7.77,90889.20,907.60,0.0,0.0,0.0
12305,2,12305,46,3.29,8.64,4.7,0.4,0.-5,0.-9,3.56,7.76,90882.68,907.90,0.0,0.0,0.0
12351,2,12351,46,3.58,8.62,3.88,0.5,0.-7,0.-10,3.62,7.77,90882.68,908.39,0.0,0.0,0.0
12397,2,12397,46,3.13,8.64,4.22,0.4,0.-8,0.-11,3.50,7.77,90890.20,907.41,0.0,0.0,0.0
12443,2,12443,46,3.38,8.64,4.4,0.7,0.-9,0.-9,3.56,7.77,90887.3,907.90,0.0,0.0,0.0
12489,2,12489,46,3.25,8.59,4.8,0.6,0.-9,0.-9,3.56,7.77,90882.62,908.39,0.0,0.0,0.0
12538,2,12538,49,3.34,8.64,3.90,0.6,0.-9,0.-8,3.56,7.77,90882.68,908.9,0.0,0.0,0.0
12584,2,12584,46,3.46,8.62,3.84,0.4,0.-9,0.-9,3.50,7.77,90885.91,907.51,0.0,0.0,0.0
12630,2,12630,46,3.44,8.61,4.1,0.3,0.-9,0.-10,3.56,7.78,90892.37,908.20,0.0,0.0,0.0
12676,2,12676,46,3.42,8.67,4.12,0.3,0.-12,0.-11,3.50,7.77,90885.91,907.80,0.0,0.0,0.0
12722,2,12722,46,3.43,8.62,3.99,0.4,0.-9,0.-9,3.56,7.78,90884.79,907.71,0.0,0.0,0.0
12768,2,12768,46,3.40,8.59,4.7,0.4,0.-9,0.-9,3.56,7.78,90883.74,907.71,0.0,0.0,0.0
12811,2,12811,43,3.41,8.67,4.3,0.4,0.-9,0.-9,3.50,7.77,90882.68,907.71,0.0,0.0,0.0
12857,2,12857,46,3.33,8.67,3.91,0.5,0.-9,0.-10,3.56,7.78,90877.22,908.50,0.0,0.0,0.0
12903,2,12903,46,3.35,8.61,4.4,0.5,0.-9,0.-10,3.62,7.77,90881.50,907.71,0.0,0.0,0.0
12949,2,12949,46,3.38,8.65,4.3,0.5,0.-8,0.-9,3.56,7.78,90882.62,908.69,0.0,0.0,0.0
12995,2,12995,46,3.51,8.65,3.95,0.5,0.-8,0.-9,3.56,7.78,90895.60,908.30,0.0,0.0,0.0
13046,2,13046,51,3.35,8.59,4.1,0.5,0.-9,0.-9,3.50,7.77,90885.91,908.20,0.0,0.0,0.0
13089,2,13089,43,3.36,8.67,4.1,0.5,0.-9,0.-8,3.56,7.77,90879.39,907.90,0.0,0.0,0.0
13135,2,13135,46,3.48,8.59,4.1,0.4,0.-8,0.-9,3.56,7.77,90882.68,907.90,0.0,0.0,0.0
13181,2,13181,46,3.44,8.60,3.90,0.5,0.-9,0.-10,3.50,7.77,90882.68,907.91,0.0,0.0,0.0
13227,2,13227,46,3.48,8.28,3.95,0.4,0.-8,0.-10,3.50,7.78,90886.91,907.91,0.0,0.0,0.0
13274,2,13274,47,3.50,8.59,4.0,0.4,0.-10,0.-10,3.43,7.77,90886.91,907.21,0.0,0.0,0.0
13320,2,13320,46,3.42,8.57,4.8,0.5,0.-10,0.-10,3.50,7.78,90882.62,908.30,0.0,0.0,0.0
13363,2,13363,43,3.46,8.65,4.1,0.4,0.-9,0.-9,3.50,7.77,90890.26,907.81,0.0,0.0,0.0
13409,2,13409,46,3.44,8.62,3.97,0.5,0.-9,0.-9,3.56,7.77,90881.50,908.40,0.0,0.0,0.0
13455,2,13455,46,3.46,8.62,4.0,0.5,0.-9,0.-9,3.56,7.79,90880.45,907.61,0.0,0.0,0.0
13501,2,13501,46,3.34,8.61,3.94,0.5,0.-9,0.-9,3.50,7.78,90880.39,907.90,0.0,0.0,0.0
13552,2,13552,51,3.46,8.61,4.1,0.5,0.-9,0.-10,3.56,7.78,90878.28,907.81,0.0,0.0,0.0
13598,2,13598,46,3.37,8.65,4.1,0.5,0.-9,0.-9,3.50,7.77,90885.85,907.81,0.0,0.0,0.0
13641,2,13641,43,3.47,8.74,4.10,0.5,0.-8,0.-9,3.50,7.77,90881.50,907.80,0.0,0.0,0.0
13687,2,13687,46,3.44,8.59,4.6,0.5,0.-9,0.-9,3.56,7.78,90885.85,908.50,0.0,0.0,0.0
13733,2,13733,46,3.26,8.63,3.98,0.4,0.-10,0.-8,3.56,7.78,90888.3,907.91,0.0,0.0,0.0
13779,2,13779,46,3.57,8.59,3.96,0.4,0.-9,0.-10,3.50,7.78,90884.74,907.61,0.0,0.0,0.0
13825,2,13825,46,3.45,8.64,3.81,0.1,0.-12,0.-12,3.50,7.78,90884.74,908.40,0.0,0.0,0.0
13871,2,13871,46,3.31,8.62,4.16,0.0,0.-16,0.-13,3.62,7.78,90894.54,908.10,0.0,0.0,0.0
13914,2,13914,43,3.51,8.60,4.1,0.4,0.-9,0.-12,3.56,7.78,90891.25,907.71,0.0,0.0,0.0
13960,2,13960,46,3.43,8.55,4.12,0.0,0.-8,0.-15,3.56,7.79,90886.91,908.11,0.0,0.0,0.0
14006,2,14006,46,2.95,8.66,3.88,0.7,0.-8,0.-6,3.56,7.78,90886.91,907.91,0.0,0.0,0.0
14057,2,14057,51,3.59,8.61,4.15,0.2,0.-10,0.-7,3.56,7.78,90886.91,908.20,0.0,0.0,0.0
14103,2,14103,46,3.54,8.58,4.14,0.5,0.-10,0.-10,3.62,7.77,90885.79,908.30,0.0,0.0,0.0
14149,2,14149,46,3.32,8.68,3.93,0.7,0.-8,0.-10,3.62,7.78,90881.57,907.81,0.0,0.0,0.0
14196,2,14196,47,3.36,8.66,3.99,0.5,0.-9,0.-9,3.56,7.77,90889.8,907.71,0.0,0.0,0.0
14242,2,14242,46,3.47,8.61,4.0,0.5,0.-9,0.-9,3.56,7.79,90883.67,907.71,0.0,0.0,0.0
14289,2,14289,47,3.39,8.64,4.3,0.4,0.-8,0.-9,3.56,7.79,90885.79,907.22,0.0,0.0,0.0
14335,2,14335,46,3.29,8.60,4.7,0.4,0.-9,0.-9,3.56,7.79,90889.8,907.52,0.0,0.0,0.0
14381,2,14381,46,3.39,8.60,3.99,0.4,0.-9,0.-9,3.56,7.79,90887.96,908.21,0.0,0.0,0.0
14427,2,14427,46,3.39,8.63,4.2,0.3,0.-9,0.-10,3.56,7.78,90882.57,907.81,0.0,0.0,0.0
14470,2,14470,43,3.42,8.63,4.11,0.3,0.-9,0.-9,3.56,7.79,90891.25,907.32,0.0,0.0,0.0
14516,2,14516,46,3.42,8.67,4.3,0.4,0.-9,0.-9,3.56,7.79,90890.14,908.31,0.0,0.0,0.0
14576,2,14576,60,3.38,8.62,4.5,0.3,0.-14,0.-10,3.56,7.78,90882.62,907.91,0.0,0.0,0.0
14622,2,14622,46,3.37,8.68,4.2,0.4,0.-10,0.-10,3.56,7.79,90882.57,908.10,0.0,0.0,0.0
14668,2,14668,46,3.34,8.59,4.1,0.4,0.-9,0.-10,3.56,7.79,90886.97,908.11,0.0,0.0,0.0
14714,2,14714,46,3.48,8.60,4.1,0.4,0.-11,0.-9,3.56,7.78,90883.67,907.21,0.0,0.0,0.0
14757,2,14757,43,3.53,8.62,4.1,0.4,0.-8,0.-10,3.62,7.78,90884.74,907.41,0.0,0.0,0.0
14803,2,14803,46,3.38,8.27,4.16,0.4,0.-9,0.-11,3.56,7.78,90889.8,907.81,0.0,0.0,0.0
14849,2,14849,46,3.34,8.64,4.0,0.5,0.-10,0.-10,3.62,7.79,90878.21,907.81,0.0,0.0,0.0
14895,2,14895,46,3.33,8.64,4.9,0.6,0.-9,0.-9,3.62,7.80,90887.96,908.11,0.0,0.0,0.0
14941,2,14941,46,3.38,8.62,4.3,0.7,0.-7,0.-8,3.62,7.79,90879.28,907.91,0.0,0.0,0.0
14987,2,14987,46,3.46,8.60,4.2,0.6,0.-7,0.-9,3.62,7.78,90884.74,907.81,0.0,0.0,0.0
15030,2,15030,43,3.32,8.65,4.0,0.5,0.-9,0.-9,3.56,7.78,90881.45,908.11,0.0,0.0,0.0
15082,2,15082,52,3.37,8.61,4.6,0.5,0.-10,0.-9,3.56,7.78,90886.85,907.71,0.0,0.0,0.0
15128,2,15128,46,3.52,8.59,3.99,0.4,0.-9,0.-9,3.56,7.79,90885.79,907.72,0.0,0.0,0.0
15174,2,15174,46,3.37,8.59,4.0,0.4,0.-9,0.-10,3.62,7.80,90883.62,908.1,0.0,0.0,0.0
15220,2,15220,46,3.36,8.70,4.7,0.4,0.-9,0.-10,3.56,7.79,90878.16,908.11,0.0,0.0,0.0
15266,2,15266,46,3.43,8.60,4.4,0.5,0.-10,0.-10,3.50,7.79,90890.14,908.11,0.0,0.0,0.0
15310,2,15310,44,3.40,8.58,3.95,0.5,0.-8,0.-9,3.62,7.79,90881.45,907.61,0.0,0.0,0.0
15356,2,15356,46,3.33,8.62,4.1,0.4,0.-11,0.-10,3.62,7.80,90889.3,907.82,0.0,0.0,0.0
15402,2,15402,46,3.42,8.66,4.1,0.3,0.-15,0.-8,3.62,7.79,90887.91,908.1,0.0,0.0,0.0
15448,2,15448,46,3.57,8.62,4.10,0.3,0.-15,0.-8,3.62,7.80,90883.56,907.61,0.0,0.0,0.0
15494,2,15494,46,3.51,8.61,3.97,0.5,0.-8,0.-10,3.68,7.80,90887.91,907.91,0.0,0.0,0.0
15540,2,15540,46,3.44,8.59,3.86,0.4,0.-6,0.-10,3.62,7.78,90893.37,907.61,0.0,0.0,0.0
15588,2,15588,48,3.44,8.63,3.99,0.3,0.-9,0.-11,3.68,7.79,90887.96,908.0,0.0,0.0,0.0
15634,2,15634,46,3.34,8.67,4.8,0.3,0.-10,0.-11,3.62,7.79,90892.32,907.91,0.0,0.0,0.0
15680,2,15680,46,3.35,8.70,4.7,0.5,0.-9,0.-9,3.56,7.80,90885.79,907.82,0.0,0.0,0.0
15726,2,15726,46,3.43,8.60,3.99,0.5,0.-7,0.-9,3.56,7.80,90882.50,908.11,0.0,0.0,0.0
15772,2,15772,46,3.37,8.61,3.97,0.6,0.-7,0.-10,3.56,7.80,90887.91,907.72,0.0,0.0,0.0
15818,2,15818,46,3.51,8.62,4.0,0.4,0.-7,0.-9,3.50,7.80,90891.14,907.61,0.0,0.0,0.0
15861,2,15861,43,3.33,8.67,4.7,0.5,0.-10,0.-9,3.56,7.79,90886.79,907.72,0.0,0.0,0.0
15907,2,15907,46,3.49,8.59,4.1,0.6,0.-9,0.-8,3.56,7.80,90883.62,908.21,0.0,0.0,0.0
15953,2,15953,46,3.52,8.62,3.90,0.5,0.-8,0.-9,3.56,7.80,90882.50,907.82,0.0,0.0,0.0
15999,2,15999,46,3.53,8.61,3.90,0.4,0.-8,0.-10,3.56,7.80,90890.8,907.42,0.0,0.0,0.0
16045,2,16045,46,3.49,8.62,3.89,0.2,0.-10,0.-11,3.50,7.80,90891.14,907.72,0.0,0.0,0.0
16096,2,16096,51,3.33,8.59,4.20,0.3,0.-9,0.-10,3.56,7.80,90882.57,907.91,0.0,0.0,0.0
16139,2,16139,43,3.48,8.60,3.91,0.5,0.-8,0.-9,3.56,7.80,90880.33,907.3,0.0,0.0,0.0
16185,2,16185,46,3.37,8.62,4.0,0.4,0.-10,0.-9,3.62,7.79,90884.67,908.11,0.0,0.0,0.0
16231,2,16231,46,3.45,8.57,4.2,0.4,0.-9,0.-9,3.62,7.80,90885.73,907.91,0.0,0.0,0.0
16277,2,16277,46,3.35,8.64,3.95,0.4,0.-8,0.-10,3.56,7.80,90879.28,907.62,0.0,0.0,0.0
16324,2,16324,47,3.45,8.64,3.96,0.3,0.-10,0.-10,3.56,7.80,90885.73,907.62,0.0,0.0,0.0
16370,2,16370,46,3.39,8.62,4.4,0.3,0.-10,0.-10,3.62,7.80,90882.57,908.1,0.0,0.0,0.0
16415,2,16415,45,3.32,8.64,4.4,0.4,0.-11,0.-9,3.56,7.80,90881.45,907.82,0.0,0.0,0.0
16461,2,16461,46,3.46,8.59,4.5,0.4,0.-11,0.-9,3.62,7.80,90886.85,907.62,0.0,0.0,0.0
16507,2,16507,46,3.46,8.57,3.92,0.5,0.-8,0.-9,3.56,7.80,90887.91,908.40,0.0,0.0,0.0
16553,2,16553,46,3.45,8.59,3.99,0.5,0.-9,0.-10,3.56,7.80,90882.44,907.52,0.0,0.0,0.0
16615,2,16615,62,3.42,8.60,3.95,0.5,0.-9,0.-9,3.62,7.78,90889.3,908.11,0.0,0.0,0.0
16661,2,16661,46,3.54,8.61,4.1,0.5,0.-10,0.-10,3.62,7.79,90884.74,907.91,0.0,0.0,0.0
16704,2,16704,43,3.43,8.59,4.5,0.5,0.-6,0.-10,3.62,7.79,90883.62,907.61,0.0,0.0,0.0
16750,2,16750,46,3.27,8.67,3.98,0.5,0.-8,0.-10,3.62,7.79,90885.79,908.21,0.0,0.0,0.0
16796,2,16796,46,3.45,8.59,3.99,0.5,0.-10,0.-9,3.62,7.79,90880.33,908.2,0.0,0.0,0.0
16842,2,16842,46,3.35,8.62,4.0,0.5,0.-9,0.-10,3.62,7.80,90888.96,906.83,0.0,0.0,0.0
16888,2,16888,46,3.47,8.61,3.97,0.5,0.-10,0.-9,3.62,7.80,90882.39,907.43,0.0,0.0,0.0
16934,2,16934,46,3.36,8.62,4.0,0.4,0.-7,0.-9,3.68,7.80,90879.28,907.72,0.0,0.0,0.0
16977,2,16977,43,3.46,8.59,3.99,0.4,0.-10,0.-9,3.68,7.80,90884.62,907.42,0.0,0.0,0.0
17023,2,17023,46,3.39,8.61,3.92,0.4,0.-9,0.-9,3.56,7.80,90881.39,908.51,0.0,0.0,0.0
17069,2,17069,46,3.42,8.60,4.5,0.4,0.-10,0.-10,3.62,7.81,90883.50,908.12,0.0,0.0,0.0
17121,2,17121,52,3.43,8.62,3.98,0.5,0.-8,0.-10,3.56,7.80,90882.44,908.11,0.0,0.0,0.0
17167,2,17167,46,3.45,8.61,4.2,0.4,0.-9,0.-9,3.62,7.80,90883.50,907.52,0.0,0.0,0.0
17213,2,17213,46,3.42,8.64,4.4,0.5,0.-9,0.-9,3.56,7.80,90891.20,907.92,0.0,0.0,0.0
17256,2,17256,43,3.44,8.58,4.0,0.5,0.-10,0.-10,3.62,7.80,90891.14,907.72,0.0,0.0,0.0
17302,2,17302,46,3.41,8.59,3.96,0.4,0.-9,0.-9,3.56,7.80,90885.67,908.12,0.0,0.0,0.0
17349,2,17349,47,3.51,8.59,4.2,0.4,0.-9,0.-9,3.56,7.81,90882.39,907.82,0.0,0.0,0.0
17395,2,17395,46,3.44,8.60,3.95,0.5,0.-10,0.-9,3.56,7.82,90879.15,908.2,0.0,0.0,0.0
17441,2,17441,46,3.41,8.62,4.5,0.5,0.-9,0.-10,3.62,7.80,90880.27,907.63,0.0,0.0,0.0
17487,2,17487,46,3.47,8.59,4.4,0.4,0.-9,0.-9,3.56,7.81,90885.67,907.53,0.0,0.0,0.0
17530,2,17530,43,3.42,8.58,3.96,0.5,0.-9,0.-9,3.62,7.81,90891.14,907.53,0.0,0.0,0.0
17576,2,17576,46,3.44,8.64,4.2,0.4,0.-9,0.-9,3.56,7.80,90882.39,908.12,0.0,0.0,0.0
17627,2,17627,51,3.41,8.56,3.94,0.5,0.-9,0.-10,3.50,7.81,90885.67,907.62,0.0,0.0,0.0
17673,2,17673,46,3.45,8.68,4.0,0.4,0.-9,0.-9,3.62,7.81,90892.19,907.92,0.0,0.0,0.0
17719,2,17719,46,3.41,8.61,4.7,0.5,0.-9,0.-9,3.62,7.80,90881.33,907.73,0.0,0.0,0.0
17765,2,17765,46,3.39,8.56,3.94,0.5,0.-9,0.-9,3.62,7.81,90888.78,908.3,0.0,0.0,0.0
17808,2,17808,43,3.51,8.62,4.2,0.5,0.-9,0.-10,3.62,7.81,90887.78,907.33,0.0,0.0,0.0
17854,2,17854,46,3.47,8.59,4.2,0.4,0.-9,0.-9,3.62,7.81,90886.67,907.93,0.0,0.0,0.0
17900,2,17900,46,3.47,8.62,3.98,0.5,0.-9,0.-10,3.62,7.82,90885.61,907.64,0.0,0.0,0.0
17946,2,17946,46,3.49,8.59,4.2,0.4,0.-9,0.-9,3.62,7.82,90891.2,907.63,0.0,0.0,0.0
17992,2,17992,46,3.44,8.55,4.0,0.5,0.-10,0.-9,3.68,7.82,90891.2,908.42,0.0,0.0,0.0
18038,2,18038,46,3.46,8.60,3.98,0.4,0.-9,0.-9,3.62,7.82,90886.67,907.74,0.0,0.0,0.0
18081,2,18081,43,3.37,8.62,3.90,0.5,0.-9,0.-9,3.62,7.82,90886.67,907.73,0.0,0.0,0.0
18132,2,18132,51,3.42,8.59,3.97,0.5,0.-9,0.-9,3.62,7.81,90887.78,907.92,0.0,0.0,0.0
18178,2,18178,46,3.43,8.60,3.98,0.5,0.-8,0.-10,3.62,7.81,90883.44,908.71,0.0,0.0,0.0
18224,2,18224,46,3.45,8.57,3.94,0.5,0.-9,0.-9,3.62,7.81,90882.39,907.43,0.0,0.0,0.0
18270,2,18270,46,3.46,8.58,4.1,0.5,0.-9,0.-9,3.68,7.81,90887.85,908.3,0.0,0.0,0.0
18316,2,18316,46,3.48,8.57,4.1,0.4,0.-9,0.-9,3.56,7.82,90887.78,907.84,0.0,0.0,0.0
18360,2,18360,44,3.55,8.63,4.2,0.5,0.-9,0.-9,3.62,7.82,90888.85,907.92,0.0,0.0,0.0
18406,2,18406,46,3.47,8.61,3.96,0.5,0.-9,0.-10,3.56,7.82,90882.32,907.73,0.0,0.0,0.0
18452,2,18452,46,3.44,8.57,3.95,0.5,0.-9,0.-9,3.62,7.82,90884.56,907.44,0.0,0.0,0.0
18498,2,18498,46,3.42,8.58,3.98,0.5,0.-9,0.-9,3.62,7.81,90881.27,907.93,0.0,0.0,0.0
18544,2,18544,46,3.47,8.61,3.99,0.4,0.-8,0.-10,3.62,7.81,90881.27,907.73,0.0,0.0,0.0
18590,2,18590,46,3.46,8.57,3.97,0.5,0.-9,0.-9,3.62,7.82,90886.67,907.53,0.0,0.0,0.0
18662,2,18662,72,3.52,8.58,4.4,0.5,0.-9,0.-9,3.68,7.80,90879.21,908.2,0.0,0.0,0.0
18708,2,18708,46,3.41,8.59,3.96,0.5,0.-9,0.-9,3.68,7.80,90886.79,907.72,0.0,0.0,0.0
18754,2,18754,46,3.46,8.63,3.96,0.5,0.-9,0.-10,3.68,7.81,90883.50,907.82,0.0,0.0,0.0
18800,2,18800,46,3.53,8.59,4.0,0.4,0.-9,0.-9,3.68,7.81,90886.73,907.83,0.0,0.0,0.0
18846,2,18846,46,3.49,8.60,3.95,0.4,0.-9,0.-9,3.62,7.81,90882.39,908.3,0.0,0.0,0.0
18892,2,18892,46,3.45,8.61,3.98,0.5,0.-9,0.-10,3.56,7.81,90885.61,908.3,0.0,0.0,0.0
18941,2,18941,49,3.52,8.58,4.0,0.4,0.-10,0.-10,3.56,7.81,90884.56,908.3,0.0,0.0,0.0
18987,2,18987,46,3.40,8.59,4.5,0.4,0.-9,0.-10,3.62,7.81,90879.3,907.44,0.0,0.0,0.0
19033,2,19033,46,3.52,8.58,4.2,0.5,0.-9,0.-9,3.62,7.81,90886.67,908.12,0.0,0.0,0.0
19079,2,19079,46,3.45,8.62,3.98,0.4,0.-9,0.-10,3.62,7.82,90889.90,908.42,0.0,0.0,0.0
19125,2,19125,46,3.44,8.63,4.1,0.5,0.-9,0.-9,3.68,7.82,90886.67,907.53,0.0,0.0,0.0
19177,2,19177,52,3.42,8.59,3.97,0.4,0.-9,0.-9,3.62,7.82,90882.39,908.3,0.0,0.0,0.0
19226,2,19226,49,3.43,8.57,3.99,0.4,0.-9,0.-9,3.56,7.81,90884.56,907.83,0.0,0.0,0.0
19272,2,19272,46,3.45,8.58,3.98,0.5,0.-9,0.-9,3.62,7.81,90882.32,908.13,0.0,0.0,0.0
19318,2,19318,46,3.46,8.59,3.98,0.5,0.-9,0.-10,3.62,7.82,90885.56,907.53,0.0,0.0,0.0
19365,2,19365,47,3.43,8.58,3.98,0.5,0.-8,0.-10,3.68,7.81,90883.44,908.3,0.0,0.0,0.0
19411,2,19411,46,3.43,8.55,3.93,0.5,0.-9,0.-10,3.62,7.83,90883.44,907.44,0.0,0.0,0.0
19457,2,19457,46,3.41,8.57,4.7,0.4,0.-8,0.-9,3.68,7.82,90876.92,908.13,0.0,0.0,0.0
19506,2,19506,49,3.45,8.59,3.95,0.5,0.-9,0.-10,3.62,7.82,90887.78,907.83,0.0,0.0,0.0
19552,2,19552,46,3.48,8.33,3.94,0.5,0.-9,0.-10,3.62,7.82,90882.32,907.93,0.0,0.0,0.0
19598,2,19598,46,3.52,8.60,4.2,0.5,0.-9,0.-9,3.56,7.82,90884.50,907.14,0.0,0.0,0.0
19644,2,19644,46,3.38,8.64,3.92,0.5,0.-9,0.-10,3.56,7.82,90885.56,907.73,0.0,0.0,0.0
19695,2,19695,51,3.40,8.58,3.98,0.5,0.-9,0.-10,3.62,7.82,90882.32,907.83,0.0,0.0,0.0
19741,2,19741,46,3.45,8.58,3.94,0.5,0.-9,0.-9,3.62,7.82,90886.67,907.53,0.0,0.0,0.0
19790,2,19790,49,3.43,8.63,4.5,0.4,0.-9,0.-10,3.62,7.83,90889.90,907.93,0.0,0.0,0.0
19836,2,19836,46,3.56,8.63,4.2,0.5,0.-9,0.-9,3.62,7.82,90883.38,907.54,0.0,0.0,0.0
19882,2,19882,46,3.39,8.62,4.5,0.5,0.-9,0.-10,3.50,7.83,90889.90,907.44,0.0,0.0,0.0
19928,2,19928,46,3.46,8.61,4.1,0.5,0.-9,0.-9,3.62,7.82,90881.21,907.83,0.0,0.0,0.0
19974,2,19974,46,3.44,8.62,3.96,0.5,0.-9,0.-10,3.56,7.83,90881.15,907.93,0.0,0.0,0.0
20020,2,20020,46,3.46,8.59,3.99,0.4,0.-9,0.-9,3.68,7.83,90887.67,908.43,0.0,0.0,0.0
20069,2,20069,49,3.50,8.56,3.99,0.5,0.-9,0.-10,3.68,7.83,90890.96,907.34,0.0,0.0,0.0
20115,2,20115,46,3.43,8.59,3.98,0.5,0.-9,0.-10,3.56,7.83,90880.9,908.13,0.0,0.0,0.0
20161,2,20161,46,3.49,8.59,4.0,0.4,0.-9,0.-9,3.62,7.84,90886.61,907.84,0.0,0.0,0.0
20212,2,20212,51,3.65,8.60,3.84,0.3,0.-9,0.-11,3.68,7.82,90893.14,907.54,0.0,0.0,0.0
20258,2,20258,46,3.44,8.59,3.94,0.1,0.-10,0.-14,3.62,7.82,90888.78,908.13,0.0,0.0,0.0
20304,2,20304,46,3.15,8.59,4.26,0.2,0.-12,0.-12,3.56,7.83,90886.67,908.3,0.0,0.0,0.0
20353,2,20353,49,3.34,8.64,4.8,0.6,0.-9,0.-7,3.56,7.83,90881.21,907.83,0.0,0.0,0.0
20400,2,20400,47,3.55,8.59,3.94,0.7,0.-9,0.-7,3.56,7.83,90880.9,907.44,0.0,0.0,0.0
20446,2,20446,46,3.46,8.59,4.2,0.4,0.-9,0.-10,3.62,7.83,90889.90,908.4,0.0,0.0,0.0
20492,2,20492,46,3.52,8.64,3.90,0.5,0.-9,0.-9,3.56,7.83,90882.32,907.93,0.0,0.0,0.0
20538,2,20538,46,3.44,8.62,4.1,0.4,0.-9,0.-10,3.68,7.83,90888.78,908.23,0.0,0.0,0.0
20584,2,20584,46,3.50,8.60,4.4,0.5,0.-9,0.-9,3.62,7.83,90886.55,907.44,0.0,0.0,0.0
20633,2,20633,49,3.40,8.61,4.1,0.5,0.-9,0.-10,3.62,7.83,90885.56,907.64,0.0,0.0,0.0
20679,2,20679,46,3.46,8.60,3.98,0.5,0.-9,0.-9,3.62,7.82,90880.9,907.84,0.0,0.0,0.0
20730,2,20730,51,3.43,8.57,3.95,0.5,0.-9,0.-9,3.62,7.82,90880.15,908.23,0.0,0.0,0.0
20776,2,20776,46,3.54,8.58,4.1,0.5,0.-9,0.-9,3.62,7.83,90886.61,907.64,0.0,0.0,0.0
20822,2,20822,46,3.44,8.59,3.94,0.4,0.-8,0.-10,3.62,7.83,90885.56,907.5,0.0,0.0,0.0
20868,2,20868,46,3.46,8.65,4.0,0.4,0.-9,0.-9,3.62,7.83,90885.56,907.83,0.0,0.0,0.0
20914,2,20914,46,3.53,8.58,4.4,0.5,0.-9,0.-10,3.56,7.83,90885.56,907.54,0.0,0.0,0.0
20958,2,20958,44,3.46,8.62,4.0,0.5,0.-9,0.-9,3.68,7.81,90880.15,906.85,0.0,0.0,0.0
21004,2,21004,46,3.47,8.60,3.98,0.5,0.-9,0.-10,3.62,7.83,90888.73,907.74,0.0,0.0,0.0
21050,2,21050,46,3.40,8.58,3.98,0.4,0.-9,0.-9,3.62,7.83,90883.32,907.83,0.0,0.0,0.0
21096,2,21096,46,3.53,8.62,4.5,0.5,0.-9,0.-10,3.62,7.82,90886.61,907.44,0.0,0.0,0.0
21142,2,21142,46,3.57,8.18,4.10,0.5,0.-7,0.-9,3.68,7.85,90883.38,907.44,0.0,0.0,0.0
21188,2,21188,46,3.46,8.66,3.99,0.5,0.-9,0.-9,3.62,7.83,90886.67,908.33,0.0,0.0,0.0
21246,2,21246,58,3.47,8.57,3.97,0.4,0.-9,0.-9,3.68,7.82,90884.56,907.53,0.0,0.0,0.0
21292,2,21292,46,3.47,8.59,3.97,0.5,0.-9,0.-9,3.68,7.81,90886.67,907.54,0.0,0.0,0.0
21338,2,21338,46,3.47,8.60,3.99,0.4,0.-9,0.-9,3.68,7.83,90888.73,907.83,0.0,0.0,0.0
21384,2,21384,46,3.44,8.54,3.92,0.5,0.-9,0.-9,3.68,7.83,90883.32,907.93,0.0,0.0,0.0
21431,2,21431,47,3.46,8.62,3.98,0.5,0.-9,0.-10,3.62,7.84,90880.3,907.94,0.0,0.0,0.0
21477,2,21477,46,3.48,8.59,4.1,0.4,0.-9,0.-9,3.68,7.83,90887.67,908.43,0.0,0.0,0.0
21520,2,21520,43,3.53,8.58,3.99,0.5,0.-9,0.-10,3.68,7.84,90884.44,907.94,0.0,0.0,0.0
21566,2,21566,46,3.45,8.58,3.95,0.5,0.-8,0.-10,3.62,7.83,90884.38,907.64,0.0,0.0,0.0
21612,2,21612,46,3.46,8.57,3.93,0.4,0.-9,0.-9,3.68,7.83,90885.50,908.33,0.0,0.0,0.0
21658,2,21658,46,3.45,8.64,3.99,0.5,0.-9,0.-9,3.62,7.83,90883.26,908.54,0.0,0.0,0.0
21704,2,21704,46,3.55,8.60,4.1,0.4,0.-9,0.-9,3.62,7.84,90888.67,907.55,0.0,0.0,0.0
21756,2,21756,52,3.46,8.60,3.98,0.5,0.-9,0.-10,3.62,7.84,90885.50,908.3,0.0,0.0,0.0
21799,2,21799,43,3.48,8.62,4.3,0.4,0.-9,0.-9,3.62,7.83,90885.50,907.84,0.0,0.0,0.0
21845,2,21845,46,3.46,8.61,3.94,0.5,0.-9,0.-10,3.62,7.83,90881.15,908.4,0.0,0.0,0.0
21891,2,21891,46,3.46,8.60,4.0,0.5,0.-9,0.-10,3.62,7.84,90882.21,908.23,0.0,0.0,0.0
21937,2,21937,46,3.42,8.57,3.96,0.5,0.-9,0.-10,3.68,7.84,90887.61,908.23,0.0,0.0,0.0
21983,2,21983,46,3.44,8.66,4.6,0.5,0.-9,0.-9,3.62,7.84,90875.68,907.45,0.0,0.0,0.0
22029,2,22029,46,3.52,8.63,4.1,0.4,0.-9,0.-9,3.68,7.84,90884.38,907.84,0.0,0.0,0.0
22072,2,22072,43,3.59,8.59,4.1,0.5,0.-9,0.-10,3.68,7.83,90887.67,907.74,0.0,0.0,0.0
22118,2,22118,46,3.53,8.59,4.0,0.4,0.-9,0.-10,3.62,7.84,90882.21,907.65,0.0,0.0,0.0
22164,2,22164,46,3.52,8.59,4.0,0.4,0.-9,0.-9,3.62,7.84,90883.32,907.74,0.0,0.0,0.0
22210,2,22210,46,3.54,8.59,4.5,0.5,0.-9,0.-10,3.62,7.84,90888.73,906.96,0.0,0.0,0.0
22261,2,22261,51,3.42,8.60,4.3,0.5,0.-8,0.-10,3.62,7.84,90884.38,907.35,0.0,0.0,0.0
22307,2,22307,46,3.52,8.59,3.98,0.4,0.-9,0.-9,3.62,7.84,90883.32,907.93,0.0,0.0,0.0
22350,2,22350,43,3.51,8.53,4.7,0.4,0.-9,0.-9,3.62,7.84,90883.32,907.64,0.0,0.0,0.0
22396,2,22396,46,3.51,8.57,4.0,0.5,0.-9,0.-10,3.75,7.85,90882.27,907.94,0.0,0.0,0.0
22443,2,22443,47,3.37,8.65,3.99,0.5,0.-8,0.-9,3.68,7.84,90891.96,907.84,0.0,0.0,0.0
22489,2,22489,46,3.44,8.61,4.8,0.5,0.-9,0.-8,3.68,7.84,90883.32,907.65,0.0,0.0,0.0
22535,2,22535,46,3.47,8.58,3.90,0.5,0.-7,0.-10,3.68,7.85,90886.50,907.85,0.0,0.0,0.0
22581,2,22581,46,3.46,8.61,3.98,0.4,0.-9,0.-10,3.81,7.84,90883.32,907.64,0.0,0.0,0.0
22624,2,22624,43,3.43,8.57,3.93,0.5,0.-9,0.-10,3.68,7.83,90882.27,908.14,0.0,0.0,0.0
22670,2,22670,46,3.56,8.63,4.0,0.4,0.-8,0.-10,3.68,7.84,90884.38,907.75,0.0,0.0,0.0
22716,2,22716,46,3.43,8.60,3.99,0.4,0.-9,0.-11,3.75,7.85,90890.84,907.45,0.0,0.0,0.0
22767,2,22767,51,3.39,8.61,4.4,0.4,0.-9,0.-9,3.68,7.83,90880.3,907.65,0.0,0.0,0.0
22813,2,22813,46,3.45,8.63,4.9,0.4,0.-9,0.-9,3.62,7.84,90882.21,908.4,0.0,0.0,0.0
22859,2,22859,46,3.41,8.59,3.99,0.5,0.-9,0.-10,3.62,7.84,90878.97,907.94,0.0,0.0,0.0
22902,2,22902,43,3.46,8.61,4.11,0.4,0.-10,0.-9,3.68,7.84,90881.15,907.93,0.0,0.0,0.0
22948,2,22948,46,3.44,8.58,4.0,0.5,0.-9,0.-10,3.68,7.85,90887.61,907.55,0.0,0.0,0.0
22994,2,22994,46,3.50,8.59,4.3,0.5,0.-9,0.-10,3.62,7.84,90885.50,907.74,0.0,0.0,0.0
23040,2,23040,46,3.34,8.61,4.9,0.5,0.-9,0.-9,3.75,7.84,90883.26,907.85,0.0,0.0,0.0
23086,2,23086,46,3.44,8.61,3.97,0.6,0.-10,0.-7,3.75,7.85,90894.7,907.35,0.0,0.0,0.0
23132,2,23132,46,3.61,8.60,4.1,0.5,0.-8,0.-10,3.68,7.84,90880.3,908.63,0.0,0.0,0.0
23176,2,23176,44,3.38,8.64,3.97,0.5,0.-8,0.-10,3.68,7.84,90887.61,907.55,0.0,0.0,0.0
23222,2,23222,46,3.48,8.61,4.1,0.5,0.-8,0.-10,3.62,7.85,90887.61,907.65,0.0,0.0,0.0
23282,2,23282,60,3.41,8.62,3.99,0.5,0.-7,0.-10,3.68,7.84,90881.15,908.73,0.0,0.0,0.0
23328,2,23328,46,3.44,8.60,4.10,0.4,0.-9,0.-10,3.68,7.83,90888.73,907.84,0.0,0.0,0.0
23374,2,23374,46,3.26,8.60,4.8,0.5,0.-9,0.-9,3.75,7.85,90882.21,907.94,0.0,0.0,0.0
23420,2,23420,46,3.49,8.59,3.91,0.6,0.-9,0.-7,3.62,7.83,90880.9,907.65,0.0,0.0,0.0
23464,2,23464,44,3.51,8.60,3.87,0.4,0.-9,0.-8,3.62,7.84,90885.50,907.94,0.0,0.0,0.0
23510,2,23510,46,3.53,8.59,4.16,0.5,0.-9,0.-9,3.62,7.84,90893.1,908.23,0.0,0.0,0.0
23556,2,23556,46,3.29,8.64,3.96,0.7,0.-5,0.-10,3.62,7.84,90888.67,908.4,0.0,0.0,0.0
23602,2,23602,46,3.33,8.62,3.92,0.5,0.-8,0.-8,3.62,7.84,90883.26,907.55,0.0,0.0,0.0
23648,2,23648,46,3.53,8.60,4.3,0.5,0.-9,0.-9,3.68,7.85,90885.43,908.14,0.0,0.0,0.0
23694,2,23694,46,3.56,8.66,3.93,0.4,0.-9,0.-9,3.62,7.85,90884.38,907.55,0.0,0.0,0.0
23737,2,23737,43,3.55,8.58,3.99,0.4,0.-9,0.-9,3.68,7.84,90885.43,907.75,0.0,0.0,0.0
23789,2,23789,52,3.48,8.65,3.93,0.4,0.-8,0.-11,3.62,7.84,90889.78,908.4,0.0,0.0,0.0
23835,2,23835,46,3.40,8.59,4.8,0.3,0.-10,0.-11,3.62,7.84,90882.14,907.95,0.0,0.0,0.0
23881,2,23881,46,3.33,8.62,3.94,0.4,0.-10,0.-9,3.68,7.85,90881.3,907.95,0.0,0.0,0.0
23927,2,23927,46,3.50,8.63,3.95,0.4,0.-9,0.-9,3.62,7.84,90878.92,907.95,0.0,0.0,0.0
23973,2,23973,46,3.51,8.61,3.91,0.4,0.-9,0.-11,3.62,7.85,90886.50,907.36,0.0,0.0,0.0
24016,2,24016,43,3.51,8.60,4.1,0.2,0.-9,0.-11,3.62,7.84,90888.67,907.75,0.0,0.0,0.0
24062,2,24062,46,3.37,8.62,4.1,0.3,0.-10,0.-11,3.62,7.85,90883.26,907.85,0.0,0.0,0.0
24108,2,24108,46,3.41,8.60,4.17,0.3,0.-11,0.-10,3.62,7.86,90887.55,908.5,0.0,0.0,0.0
24154,2,24154,46,3.45,8.59,3.91,0.5,0.-9,0.-8,3.68,7.85,90882.14,907.65,0.0,0.0,0.0
24200,2,24200,46,3.49,8.56,4.3,0.3,0.-9,0.-9,3.62,7.85,90883.21,908.14,0.0,0.0,0.0
24246,2,24246,46,3.50,8.56,4.6,0.5,0.-9,0.-10,3.62,7.84,90889.78,908.5,0.0,0.0,0.0
24294,2,24294,48,3.42,8.62,3.93,0.4,0.-8,0.-10,3.68,7.84,90888.73,907.55,0.0,0.0,0.0
24340,2,24340,46,3.38,8.58,4.14,0.4,0.-9,0.-10,3.68,7.86,90885.38,907.55,0.0,0.0,0.0
24386,2,24386,46,3.36,9.77,3.99,0.5,0.-9,0.-9,3.68,7.85,90884.32,907.95,0.0,0.0,0.0
24432,2,24432,46,3.50,8.65,3.92,0.5,0.-9,0.-9,3.62,7.86,90876.68,907.95,0.0,0.0,0.0
24479,2,24479,47,3.57,8.59,4.2,0.5,0.-9,0.-10,3.62,7.85,90892.96,907.45,0.0,0.0,0.0
24525,2,24525,46,3.50,8.60,3.97,0.5,0.-9,0.-11,3.62,7.85,90886.50,907.36,0.0,0.0,0.0
24568,2,24568,43,3.34,8.58,4.6,0.4,0.-9,0.-10,3.68,7.85,90886.43,907.75,0.0,0.0,0.0
24614,2,24614,46,3.43,8.58,4.4,0.5,0.-10,0.-9,3.62,7.85,90881.3,907.26,0.0,0.0,0.0
24660,2,24660,46,3.48,8.57,3.98,0.4,0.-9,0.-9,3.68,7.85,90890.78,907.85,0.0,0.0,0.0
24706,2,24706,46,3.58,8.57,4.3,0.5,0.-9,0.-10,3.68,7.86,90881.3,907.66,0.0,0.0,0.0
24752,2,24752,46,3.50,8.58,3.99,0.5,0.-8,0.-10,3.68,7.86,90883.21,908.15,0.0,0.0,0.0
24803,2,24803,51,3.35,8.60,4.2,0.4,0.-8,0.-10,3.62,7.86,90884.38,907.85,0.0,0.0,0.0
24846,2,24846,43,3.38,8.61,4.9,0.5,0.-10,0.-8,3.68,7.85,90886.50,907.65,0.0,0.0,0.0
24892,2,24892,46,3.51,8.61,3.94,0.5,0.-9,0.-8,3.62,7.85,90890.78,907.65,0.0,0.0,0.0
24938,2,24938,46,3.46,8.58,4.1,0.4,0.-8,0.-9,3.68,7.86,90886.43,907.36,0.0,0.0,0.0
24984,2,24984,46,3.54,8.54,3.98,0.5,0.-9,0.-10,3.75,7.85,90885.38,907.56,0.0,0.0,0.0
25030,2,25030,46,3.39,8.59,4.0,0.4,0.-8,0.-10,3.68,7.86,90888.60,908.54,0.0,0.0,0.0
25076,2,25076,46,3.35,8.62,4.6,0.4,0.-9,0.-10,3.68,7.86,90882.14,907.86,0.0,0.0,0.0
25119,2,25119,43,3.34,8.60,4.4,0.5,0.-9,0.-8,3.68,7.86,90888.60,907.75,0.0,0.0,0.0
25165,2,25165,46,3.62,8.56,3.92,0.5,0.-8,0.-8,3.62,7.86,90883.14,907.95,0.0,0.0,0.0
25211,2,25211,46,3.41,8.61,3.96,0.5,0.-8,0.-10,3.62,7.87,90883.14,908.44,0.0,0.0,0.0
25257,2,25257,46,3.35,8.61,3.96,0.5,0.-9,0.-9,3.62,7.85,90889.66,907.75,0.0,0.0,0.0
25308,2,25308,51,3.47,8.56,4.4,0.4,0.-10,0.-9,3.62,7.86,90884.26,907.16,0.0,0.0,0.0
25354,2,25354,46,3.49,8.57,4.6,0.5,0.-9,0.-9,3.62,7.86,90882.14,907.45,0.0,0.0,0.0
25399,2,25399,45,3.49,8.56,4.0,0.5,0.-8,0.-10,3.68,7.85,90884.32,907.65,0.0,0.0,0.0
25445,2,25445,46,3.36,8.61,4.4,0.5,0.-8,0.-10,3.62,7.86,90885.38,908.5,0.0,0.0,0.0
25492,2,25492,47,3.39,8.59,3.95,0.6,0.-9,0.-8,3.68,7.86,90885.32,908.35,0.0,0.0,0.0
25538,2,25538,46,3.48,8.56,3.99,0.4,0.-9,0.-9,3.68,7.85,90886.37,908.15,0.0,0.0,0.0
25584,2,25584,46,3.57,8.60,4.2,0.4,0.-9,0.-8,3.68,7.86,90883.21,907.56,0.0,0.0,0.0
25630,2,25630,46,3.54,8.56,3.97,0.5,0.-8,0.-11,3.62,7.86,90890.78,907.85,0.0,0.0,0.0
25673,2,25673,43,3.35,8.61,3.98,0.4,0.-9,0.-11,3.68,7.85,90886.43,907.65,0.0,0.0,0.0
25719,2,25719,46,3.37,8.60,4.8,0.5,0.-10,0.-9,3.68,7.86,90884.20,908.5,0.0,0.0,0.0
25765,2,25765,46,3.58,8.59,3.85,0.7,0.-8,0.-9,3.68,7.85,90883.14,907.76,0.0,0.0,0.0
25826,2,25826,61,3.46,8.60,4.8,0.4,0.-9,0.-10,3.62,7.85,90883.21,907.75,0.0,0.0,0.0
25872,2,25872,46,3.47,8.59,3.98,0.4,0.-8,0.-10,3.62,7.85,90888.60,907.95,0.0,0.0,0.0
25918,2,25918,46,3.26,8.62,4.3,0.4,0.-9,0.-10,3.68,7.85,90882.14,908.14,0.0,0.0,0.0
25961,2,25961,43,3.48,8.61,4.7,0.5,0.-11,0.-9,3.68,7.85,90886.43,908.5,0.0,0.0,0.0
26007,2,26007,46,3.58,8.65,3.94,0.5,0.-9,0.-8,3.68,7.86,90887.55,907.66,0.0,0.0,0.0
26053,2,26053,46,3.50,8.60,4.8,0.5,0.-8,0.-10,3.62,7.87,90883.21,907.26,0.0,0.0,0.0
26099,2,26099,46,3.43,8.57,4.0,0.5,0.-8,0.-10,3.68,7.87,90887.49,907.86,0.0,0.0,0.0
26145,2,26145,46,3.51,8.61,4.2,0.4,0.-8,0.-10,3.56,7.86,90885.25,907.86,0.0,0.0,0.0
26191,2,26191,46,3.45,8.58,4.6,0.4,0.-9,0.-9,3.62,7.86,90885.43,907.95,0.0,0.0,0.0
26247,2,26247,56,3.57,8.54,3.85,0.5,0.-9,0.-9,3.68,7.85,90884.32,908.5,0.0,0.0,0.0
26293,2,26293,46,3.59,8.62,4.1,0.4,0.-8,0.-10,3.62,7.86,90890.78,907.26,0.0,0.0,0.0
26346,2,26346,53,3.44,8.59,3.96,0.4,0.-8,0.-11,3.62,7.85,90883.26,907.95,0.0,0.0,0.0
26392,2,26392,46,3.27,8.59,4.8,0.3,0.-11,0.-10,3.62,7.85,90884.26,908.15,0.0,0.0,0.0
26438,2,26438,46,3.46,8.57,4.6,0.4,0.-11,0.-7,3.68,7.87,90883.14,907.75,0.0,0.0,0.0
26484,2,26484,46,3.65,8.60,3.85,0.5,0.-9,0.-9,3.56,7.86,90882.9,908.5,0.0,0.0,0.0
26528,2,26528,44,3.55,8.60,4.1,0.4,0.-8,0.-10,3.75,7.86,90883.21,908.15,0.0,0.0,0.0
26574,2,26574,46,3.46,8.60,3.93,0.4,0.-8,0.-12,3.68,7.86,90886.43,907.17,0.0,0.0,0.0
26620,2,26620,46,3.26,8.60,4.13,0.4,0.-10,0.-10,3.62,7.86,90882.3,907.66,0.0,0.0,0.0
26666,2,26666,46,3.50,8.60,4.2,0.5,0.-9,0.-8,3.68,7.87,90883.14,907.7,0.0,0.0,0.0
26712,2,26712,46,3.46,8.59,3.90,0.5,0.-9,0.-9,3.68,7.87,90882.3,908.26,0.0,0.0,0.0
26758,2,26758,46,3.40,8.62,4.8,0.4,0.-9,0.-10,3.68,7.87,90887.49,908.5,0.0,0.0,0.0
26801,2,26801,43,3.44,8.59,3.98,0.5,0.-9,0.-10,3.68,7.87,90892.89,908.15,0.0,0.0,0.0
26852,2,26852,51,3.42,8.62,4.2,0.4,0.-9,0.-10,3.68,7.87,90889.66,907.66,0.0,0.0,0.0
26898,2,26898,46,3.52,8.57,4.5,0.5,0.-10,0.-9,3.68,7.87,90893.95,908.35,0.0,0.0,0.0
26944,2,26944,46,3.57,8.58,3.93,0.4,0.-9,0.-9,3.68,7.87,90884.20,908.5,0.0,0.0,0.0
26990,2,26990,46,3.53,8.55,4.0,0.5,0.-9,0.-10,3.75,7.88,90884.14,907.96,0.0,0.0,0.0
27036,2,27036,46,3.35,8.65,4.1,0.5,0.-8,0.-10,3.68,7.87,90885.20,907.86,0.0,0.0,0.0
27079,2,27079,43,3.34,8.64,4.5,0.5,0.-9,0.-8,3.68,7.87,90888.49,907.66,0.0,0.0,0.0
27125,2,27125,46,3.56,8.58,3.97,0.5,0.-10,0.-8,3.68,7.87,90885.25,907.96,0.0,0.0,0.0
27171,2,27171,46,3.49,8.57,4.1,0.4,0.-8,0.-9,3.75,7.87,90886.32,908.6,0.0,0.0,0.0
27217,2,27217,46,3.53,8.60,4.3,0.4,0.-8,0.-10,3.75,7.87,90883.8,907.47,0.0,0.0,0.0
27263,2,27263,46,3.29,8.65,4.9,0.5,0.-9,0.-10,3.75,7.87,90886.32,907.67,0.0,0.0,0.0
27309,2,27309,46,3.36,8.64,4.6,0.5,0.-9,0.-8,3.68,7.87,90880.91,907.18,0.0,0.0,0.0
27359,2,27359,50,3.38,8.60,3.95,0.6,0.-8,0.-8,3.68,7.87,90879.79,907.86,0.0,0.0,0.0
27405,2,27405,46,3.58,8.62,4.2,0.4,0.-9,0.-10,3.75,7.87,90878.74,907.56,0.0,0.0,0.0
27451,2,27451,46,3.50,8.57,4.2,0.4,0.-8,0.-12,3.75,7.87,90884.14,908.75,0.0,0.0,0.0
27497,2,27497,46,3.34,8.60,3.96,0.3,0.-9,0.-11,3.75,7.88,90887.37,908.16,0.0,0.0,0.0
27544,2,27544,47,3.34,8.60,4.20,0.3,0.-11,0.-9,3.68,7.88,90881.96,907.86,0.0,0.0,0.0
27590,2,27590,46,3.52,8.60,3.97,0.6,0.-9,0.-8,3.75,7.88,90876.50,907.87,0.0,0.0,0.0
27638,2,27638,48,3.53,8.56,3.93,0.4,0.-8,0.-11,3.68,7.87,90883.2,907.86,0.0,0.0,0.0
27684,2,27684,46,3.36,8.64,4.4,0.4,0.-8,0.-11,3.68,7.88,90884.8,907.76,0.0,0.0,0.0
27730,2,27730,46,3.35,8.66,4.6,0.4,0.-8,0.-11,3.75,7.87,90883.8,908.6,0.0,0.0,0.0
27776,2,27776,46,3.36,8.59,4.14,0.4,0.-10,0.-9,3.68,7.88,90883.2,909.5,0.0,0.0,0.0
27822,2,27822,46,3.58,8.56,3.98,0.5,0.-10,0.-8,3.75,7.88,90886.25,907.96,0.0,0.0,0.0
27882,2,27882,60,3.48,8.59,4.10,0.5,0.-8,0.-10,3.68,7.87,90882.9,908.15,0.0,0.0,0.0
27925,2,27925,43,3.40,8.60,3.98,0.6,0.-7,0.-11,3.75,7.87,90883.8,907.66,0.0,0.0,0.0
27971,2,27971,46,3.39,8.67,4.3,0.4,0.-9,0.-8,3.68,7.88,90889.54,908.45,0.0,0.0,0.0
28017,2,28017,46,3.57,8.61,3.98,0.5,0.-9,0.-9,3.75,7.87,90888.42,907.86,0.0,0.0,0.0
28063,2,28063,46,3.56,8.61,4.4,0.4,0.-7,0.-10,3.68,7.87,90885.20,907.76,0.0,0.0,0.0
28109,2,28109,46,3.46,8.67,4.0,0.4,0.-8,0.-11,3.75,7.87,90886.25,908.75,0.0,0.0,0.0
28155,2,28155,46,3.42,8.59,3.98,0.2,0.-10,0.-13,3.75,7.88,90887.37,908.26,0.0,0.0,0.0
28204,2,28204,49,3.25,8.63,4.15,0.2,0.-10,0.-11,3.68,7.87,90889.54,907.96,0.0,0.0,0.0
28250,2,28250,46,3.38,8.58,4.13,0.7,0.-9,0.-7,3.75,7.88,90885.20,907.57,0.0,0.0,0.0
28296,2,28296,46,3.71,8.59,3.88,0.6,0.-8,0.-8,3.75,7.88,90878.67,907.97,0.0,0.0,0.0
28342,2,28342,46,3.46,8.61,3.96,0.4,0.-8,0.-10,3.68,7.88,90891.71,907.96,0.0,0.0,0.0
28394,2,28394,52,3.40,8.58,4.14,0.4,0.-9,0.-9,3.68,7.87,90883.2,907.96,0.0,0.0,0.0
28440,2,28440,46,3.38,8.62,4.3,0.5,0.-10,0.-9,3.75,7.88,90889.54,907.38,0.0,0.0,0.0
28489,2,28489,49,3.49,8.59,3.95,0.5,0.-9,0.-8,3.68,7.87,90883.2,907.96,0.0,0.0,0.0
28535,2,28535,46,3.51,8.57,4.6,0.5,0.-8,0.-10,3.75,7.88,90884.8,908.6,0.0,0.0,0.0
28582,2,28582,47,3.35,8.63,3.92,0.5,0.-7,0.-11,3.75,7.88,90884.8,907.67,0.0,0.0,0.0
28628,2,28628,46,3.23,8.61,4.13,0.4,0.-10,0.-10,3.75,7.88,90884.8,908.27,0.0,0.0,0.0
28674,2,28674,46,3.38,8.62,4.6,0.6,0.-10,0.-8,3.68,7.88,90890.60,908.17,0.0,0.0,0.0
28720,2,28720,46,3.54,8.59,4.3,0.4,0.-8,0.-10,3.68,7.89,90880.85,908.36,0.0,0.0,0.0
28769,2,28769,49,3.39,8.59,4.1,0.4,0.-9,0.-11,3.68,7.89,90884.14,907.77,0.0,0.0,0.0
28815,2,28815,46,3.43,8.63,3.99,0.4,0.-8,0.-10,3.75,7.89,90886.19,907.77,0.0,0.0,0.0
28861,2,28861,46,3.49,8.57,4.5,0.5,0.-10,0.-8,3.75,7.89,90884.2,908.66,0.0,0.0,0.0
28912,2,28912,51,3.52,8.59,4.0,0.6,0.-9,0.-8,3.68,7.89,90886.25,907.87,0.0,0.0,0.0
28958,2,28958,46,3.46,8.60,3.99,0.4,0.-8,0.-10,3.62,7.88,90885.14,907.77,0.0,0.0,0.0
29004,2,29004,46,3.47,8.57,4.1,0.5,0.-8,0.-11,3.75,7.88,90886.32,907.87,0.0,0.0,0.0
29053,2,29053,49,3.50,8.33,4.5,0.4,0.-9,0.-11,3.75,7.88,90887.31,908.7,0.0,0.0,0.0
29099,2,29099,46,3.44,8.62,4.1,0.5,0.-10,0.-8,3.68,7.89,90881.85,907.57,0.0,0.0,0.0
29145,2,29145,46,3.51,8.55,3.99,0.5,0.-10,0.-9,3.68,7.89,90886.19,907.67,0.0,0.0,0.0
29191,2,29191,46,3.52,8.58,4.0,0.4,0.-8,0.-9,3.62,7.89,90876.44,907.58,0.0,0.0,0.0
29237,2,29237,46,3.52,8.60,3.90,0.5,0.-8,0.-11,3.68,7.89,90886.19,907.58,0.0,0.0,0.0
29283,2,29283,46,3.57,8.58,3.82,0.2,0.-8,0.-12,3.75,7.89,90885.7,907.38,0.0,0.0,0.0
29332,2,29332,49,3.23,8.63,4.34,0.1,0.-10,0.-12,3.75,7.89,90888.42,907.77,0.0,0.0,0.0
29378,2,29378,46,3.53,8.58,4.19,0.6,0.-9,0.-8,3.75,7.89,90888.42,907.48,0.0,0.0,0.0
29429,2,29429,51,3.58,8.59,3.72,0.5,0.-7,0.-10,3.75,7.88,90886.25,907.57,0.0,0.0,0.0
29475,2,29475,46,3.43,8.58,4.16,0.2,0.-12,0.-13,3.81,7.89,90887.31,907.77,0.0,0.0,0.0
29521,2,29521,46,3.11,8.61,4.10,0.3,0.-10,0.-11,3.68,7.89,90878.61,907.48,0.0,0.0,0.0
29567,2,29567,46,3.46,8.60,4.5,0.5,0.-9,0.-6,3.68,7.89,90887.31,907.58,0.0,0.0,0.0
29617,2,29617,50,3.68,8.56,3.85,0.3,0.-9,0.-10,3.75,7.89,90882.96,907.87,0.0,0.0,0.0
29663,2,29663,46,3.70,8.53,4.10,0.1,0.-11,0.-15,3.75,7.90,90887.31,908.7,0.0,0.0,0.0
29709,2,29709,46,2.97,8.68,4.0,0.0,0.-13,0.-15,3.75,7.89,90889.42,907.67,0.0,0.0,0.0
29755,2,29755,46,3.19,8.58,4.45,0.4,0.-10,0.-7,3.68,7.88,90884.2,908.7,0.0,0.0,0.0
29801,2,29801,46,3.39,8.70,3.90,0.10,0.-4,0.-2,3.75,7.90,90882.96,907.68,0.0,0.0,0.0
29847,2,29847,46,3.72,8.55,3.83,0.4,0.-9,0.-9,3.68,7.90,90877.50,908.17,0.0,0.0,0.0
29897,2,29897,50,3.55,8.55,4.17,0.2,0.-8,0.-12,3.75,7.90,90889.42,907.38,0.0,0.0,0.0
29958,2,29958,61,3.26,8.63,3.97,0.3,0.-10,0.-16,3.75,7.88,90883.2,907.96,0.0,0.0,0.0
30004,2,30004,46,3.11,8.63,4.33,0.2,0.-11,0.-8,3.81,7.88,90881.90,907.57,0.0,0.0,0.0
30050,2,30050,46,3.46,8.53,4.3,0.6,0.-9,0.-5,3.81,7.89,90882.96,908.7,0.0,0.0,0.0
30096,2,30096,46,3.76,8.51,4.7,0.4,0.-7,0.-7,3.81,7.90,90878.61,908.17,0.0,0.0,0.0
30142,2,30142,46,3.45,8.57,4.5,0.3,0.-9,0.-12,3.75,7.89,90885.14,908.8,0.0,0.0,0.0
30191,2,30191,49,3.61,8.59,4.0,0.3,0.-10,0.-15,3.81,7.90,90885.14,907.78,0.0,0.0,0.0
30237,2,30237,46,2.65,8.67,4.22,0.1,0.-12,0.-9,3.75,7.90,90882.96,907.78,0.0,0.0,0.0
30283,2,30283,46,3.81,8.47,4.51,0.7,0.-9,0.-3,3.68,7.90,90884.2,907.88,0.0,0.0,0.0
30329,2,30329,46,3.58,8.59,3.71,0.8,0.-5,0.-6,3.75,7.90,90887.31,908.47,0.0,0.0,0.0
30375,2,30375,46,3.67,8.55,3.93,0.4,0.-7,0.-10,3.75,7.90,90883.96,908.27,0.0,0.0,0.0
30421,2,30421,46,3.40,8.56,4.5,0.0,0.-13,0.-15,3.68,7.89,90882.90,907.78,0.0,0.0,0.0
30476,2,30476,55,2.94,8.58,4.27,0.4,0.-9,0.-9,3.68,7.90,90888.36,908.57,0.0,0.0,0.0
30522,2,30522,46,3.52,8.52,4.36,0.7,0.-7,0.-3,3.68,7.90,90888.36,908.8,0.0,0.0,0.0
30568,2,30568,46,3.74,8.52,3.74,0.8,0.-6,0.-8,3.68,7.89,90882.90,907.88,0.0,0.0,0.0
30614,2,30614,46,3.54,8.56,3.97,0.1,0.-11,0.-11,3.75,7.90,90885.7,907.78,0.0,0.0,0.0
30661,2,30661,47,3.31,8.50,4.26,0.1,0.-11,0.-12,3.68,7.90,90887.25,907.88,0.0,0.0,0.0
30707,2,30707,46,3.27,8.57,4.23,0.6,0.-9,0.-9,3.75,7.91,90885.7,907.48,0.0,0.0,0.0
30756,2,30756,49,3.52,8.58,3.94,0.6,0.-6,0.-7,3.75,7.90,90876.44,907.58,0.0,0.0,0.0
30802,2,30802,46,3.54,8.56,4.1,0.5,0.-8,0.-9,3.75,7.90,90880.73,908.17,0.0,0.0,0.0
30848,2,30848,46,3.33,8.61,3.94,0.3,0.-9,0.-10,3.68,7.91,90888.31,908.18,0.0,0.0,0.0
30894,2,30894,46,3.57,8.55,4.17,0.3,0.-10,0.-11,3.75,7.90,90885.7,907.88,0.0,0.0,0.0
30940,2,30940,46,3.20,8.59,4.16,0.5,0.-9,0.-10,3.75,7.90,90887.19,907.88,0.0,0.0,0.0
30991,2,30991,51,3.58,8.57,4.10,0.7,0.-5,0.-7,3.68,7.90,90885.7,907.68,0.0,0.0,0.0
31040,2,31040,49,3.43,8.58,4.1,0.6,0.-8,0.-10,3.75,7.89,90881.78,907.88,0.0,0.0,0.0
31086,2,31086,46,3.60,8.57,4.11,0.4,0.-8,0.-10,3.75,7.90,90885.7,907.49,0.0,0.0,0.0
31132,2,31132,46,3.22,8.63,3.93,0.2,0.-12,0.-14,3.68,7.90,90890.48,908.57,0.0,0.0,0.0
31178,2,31178,46,2.92,8.66,4.36,0.2,0.-11,0.-8,3.75,7.90,90886.14,908.18,0.0,0.0,0.0
31224,2,31224,46,3.59,8.54,4.8,0.9,0.-3,0.-3,3.75,7.91,90882.84,907.49,0.0,0.0,0.0
31270,2,31270,46,3.48,8.62,3.90,0.5,0.-8,0.-10,3.68,7.91,90885.2,907.49,0.0,0.0,0.0
31319,2,31319,49,3.60,8.56,4.4,0.3,0.-7,0.-13,3.75,7.90,90887.25,908.28,0.0,0.0,0.0
31365,2,31365,46,3.22,8.65,4.3,0.0,0.-15,0.-16,3.68,7.91,90887.19,907.49,0.0,0.0,0.0
31411,2,31411,46,2.94,8.59,4.43,0.4,0.-10,0.-8,3.68,7.90,90882.84,908.8,0.0,0.0,0.0
31457,2,31457,46,3.68,8.56,4.9,0.9,0.-1,0.-2,3.68,7.91,90878.50,907.68,0.0,0.0,0.0
31508,2,31508,51,3.51,8.56,3.92,0.6,0.-7,0.-11,3.75,7.90,90882.84,907.98,0.0,0.0,0.0
31554,2,31554,46,3.45,8.58,3.93,0.3,0.-8,0.-11,3.68,7.90,90885.2,908.37,0.0,0.0,0.0
31603,2,31603,49,3.20,8.59,4.20,0.2,0.-14,0.-12,3.68,7.90,90885.7,908.87,0.0,0.0,0.0
31649,2,31649,46,3.45,8.55,4.18,0.6,0.-9,0.-7,3.68,7.91,90887.25,908.18,0.0,0.0,0.0
31696,2,31696,47,3.61,8.59,3.82,0.6,0.-6,0.-8,3.75,7.91,90886.7,907.88,0.0,0.0,0.0
31742,2,31742,46,3.58,8.58,4.1,0.2,0.-9,0.-12,3.75,7.90,90888.25,907.69,0.0,0.0,0.0
31788,2,31788,46,3.31,8.65,4.1,0.1,0.-11,0.-13,3.75,7.91,90882.84,907.98,0.0,0.0,0.0
31834,2,31834,46,3.42,8.53,4.40,0.2,0.-12,0.-12,3.75,7.92,90882.84,908.38,0.0,0.0,0.0
31883,2,31883,49,2.95,8.68,4.5,0.6,0.-9,0.-8,3.68,7.92,90888.25,908.8,0.0,0.0,0.0
31929,2,31929,46,3.65,8.53,4.21,0.6,0.-7,0.-3,3.68,7.91,90882.78,907.59,0.0,0.0,0.0
31975,2,31975,46,3.73,8.54,3.92,0.8,0.-6,0.-8,3.75,7.92,90885.2,907.89,0.0,0.0,0.0
32026,2,32026,51,3.28,8.65,3.80,0.2,0.-10,0.-11,3.81,7.91,90888.25,907.58,0.0,0.0,0.0
32072,2,32072,46,3.43,8.52,4.37,0.2,0.-9,0.-8,3.68,7.91,90879.61,908.18,0.0,0.0,0.0
32118,2,32118,46,3.68,8.48,4.13,0.6,0.-9,0.-11,3.68,7.92,90886.7,907.88,0.0,0.0,0.0
32170,2,32170,52,3.25,8.67,3.90,0.6,0.-8,0.-14,3.75,7.91,90881.78,907.78,0.0,0.0,0.0
32216,2,32216,46,3.23,8.65,3.97,0.1,0.-11,0.-11,3.68,7.91,90887.19,907.79,0.0,0.0,0.0
32262,2,32262,46,3.24,8.61,4.34,0.5,0.-10,0.-5,3.62,7.91,90879.55,908.18,0.0,0.0,0.0
32308,2,32308,46,3.74,8.54,3.94,0.8,0.-4,0.-6,3.75,7.92,90886.7,907.59,0.0,0.0,0.0
32354,2,32354,46,3.60,8.59,4.1,0.3,0.-8,0.-12,3.75,7.91,90882.84,907.98,0.0,0.0,0.0
32400,2,32400,46,3.45,8.57,4.18,0.1,0.-12,0.-13,3.68,7.92,90882.78,908.48,0.0,0.0,0.0
32449,2,32449,49,3.19,8.63,4.6,0.2,0.-12,0.-13,3.68,7.91,90880.60,908.9,0.0,0.0,0.0
32495,2,32495,46,3.15,8.59,4.14,0.2,0.-11,0.-10,3.68,7.92,90879.55,907.98,0.0,0.0,0.0
32555,2,32555,60,3.45,8.53,4.12,0.6,0.-8,0.-8,3.68,7.91,90881.78,908.37,0.0,0.0,0.0
32601,2,32601,46,3.57,8.57,4.1,0.5,0.-8,0.-9,3.75,7.91,90887.19,908.28,0.0,0.0,0.0
32647,2,32647,46,3.44,8.57,4.15,0.4,0.-9,0.-11,3.68,7.92,90886.7,908.8,0.0,0.0,0.0
32693,2,32693,46,3.47,8.57,4.1,0.4,0.-9,0.-12,3.75,7.92,90884.96,907.98,0.0,0.0,0.0
32743,2,32743,50,3.1,8.62,4.18,0.3,0.-12,0.-12,3.68,7.91,90882.84,907.98,0.0,0.0,0.0
32789,2,32789,46,3.41,8.58,4.18,0.7,0.-7,0.-4,3.75,7.92,90881.72,907.59,0.0,0.0,0.0
32835,2,32835,46,3.65,8.58,3.99,0.8,0.-6,0.-8,3.75,7.92,90882.84,907.69,0.0,0.0,0.0
32881,2,32881,46,3.52,8.57,4.0,0.4,0.-7,0.-11,3.68,7.92,90884.96,907.89,0.0,0.0,0.0
32927,2,32927,46,3.21,8.59,4.10,0.3,0.-11,0.-14,3.68,7.92,90883.84,907.89,0.0,0.0,0.0
32973,2,32973,46,3.4,8.59,4.39,0.3,0.-11,0.-8,3.68,7.93,90882.78,908.9,0.0,0.0,0.0
33022,2,33022,49,3.52,8.56,4.20,0.9,0.-5,0.-5,3.81,7.93,90888.18,907.49,0.0,0.0,0.0
33073,2,33073,51,3.67,8.52,3.97,0.5,0.-9,0.-9,3.75,7.92,90888.18,908.9,0.0,0.0,0.0
33119,2,33119,46,3.29,8.56,4.15,0.5,0.-9,0.-9,3.75,7.92,90894.71,908.19,0.0,0.0,0.0
33165,2,33165,46,3.36,8.61,4.8,0.7,0.-5,0.-7,3.75,7.93,90886.1,908.9,0.0,0.0,0.0
33211,2,33211,46,3.39,8.58,4.0,0.7,0.-6,0.-6,3.68,7.93,90883.84,907.99,0.0,0.0,0.0
33257,2,33257,46,3.67,8.56,4.4,0.5,0.-8,0.-10,3.68,7.92,90889.25,908.19,0.0,0.0,0.0
33306,2,33306,49,3.38,8.57,3.94,0.3,0.-10,0.-13,3.75,7.93,90883.84,907.89,0.0,0.0,0.0
33352,2,33352,46,3.19,8.56,4.26,0.2,0.-11,0.-9,3.75,7.92,90887.13,907.89,0.0,0.0,0.0
33398,2,33398,46,3.36,8.60,4.5,0.6,0.-9,0.-8,3.75,7.92,90877.38,907.79,0.0,0.0,0.0
33444,2,33444,46,3.57,8.55,4.5,0.4,0.-8,0.-8,3.75,7.93,90891.42,907.70,0.0,0.0,0.0
33490,2,33490,46,3.64,8.60,4.12,0.4,0.-8,0.-11,3.75,7.93,90879.49,907.70,0.0,0.0,0.0
33536,2,33536,46,3.32,8.63,3.93,0.3,0.-13,0.-15,3.75,7.92,90891.42,908.58,0.0,0.0,0.0
33590,2,33590,54,3.14,8.62,4.25,0.3,0.-10,0.-9,3.68,7.92,90886.1,907.59,0.0,0.0,0.0
