millis(),currentState,Calculated flight time,Time since last log,IMUAcc.acceleration.x,IMUAcc.acceleration.y,IMUAcc.acceleration.z,IMUGyro.gyro.x,IMUGyro.gyro.y,IMUGyro.gyro.z,IMUTher.temperature,BARO.readTemperature,BARO.readPressure,BARO.readAltitude,orientation.actual.roll,orientation.actual.pitch,orientation.actual.yaw
700,2,700,700,0.-99,10.0,1.51,0.12,0.27,0.-20,6.93,11.36,90934.21,903.1,0.0,0.0,0.0
752,2,752,52,1.67,9.48,0.70,0.29,0.23,0.-22,7.0,11.38,90934.2,903.73,0.0,0.0,0.0
798,2,798,46,0.-42,10.70,1.21,0.24,0.35,0.-53,7.0,11.39,90933.92,903.34,0.0,0.0,0.0
840,2,840,42,0.17,9.79,0.22,0.26,0.0,0.-14,7.0,11.40,90940.32,903.5,0.0,0.0,0.0
886,2,886,46,0.-18,10.1,0.75,0.14,0.0,0.4,7.6,11.41,90930.41,903.16,0.0,0.0,0.0
932,2,932,46,0.28,10.2,0.89,0.17,0.5,0.0,7.0,11.42,90933.65,903.57,0.0,0.0,0.0
978,2,978,46,0.-12,9.91,0.83,0.-6,0.9,0.-10,7.12,11.43,90934.70,902.78,0.0,0.0,0.0
1025,2,1025,47,0.64,9.73,0.-6,0.-14,0.-9,0.-16,7.6,11.43,90935.65,903.57,0.0,0.0,0.0
1071,2,1071,46,0.-55,10.22,1.62,0.-9,0.-5,0.-17,7.6,11.43,90934.70,903.57,0.0,0.0,0.0
1114,2,1114,43,0.56,9.55,0.-45,0.8,0.-9,0.-6,7.6,11.43,90935.65,903.27,0.0,0.0,0.0
1160,2,1160,46,0.63,9.69,0.-23,0.-55,0.16,0.-27,7.12,11.43,90938.89,903.47,0.0,0.0,0.0
1206,2,1206,46,0.26,10.69,1.57,0.-55,0.-19,0.-13,7.12,11.44,90935.65,902.69,0.0,0.0,0.0
1257,2,1257,51,0.-27,10.46,0.56,0.11,0.-22,0.-1,7.12,11.44,90935.65,903.97,0.0,0.0,0.0
1303,2,1303,46,0.-87,9.56,0.98,0.-22,0.-10,0.23,7.12,11.44,90926.89,903.8,0.0,0.0,0.0
1349,2,1349,46,0.36,10.3,1.74,0.9,0.-9,0.17,7.12,11.43,90943.37,903.48,0.0,0.0,0.0
1392,2,1392,43,0.83,9.96,0.99,0.0,0.4,0.-18,7.12,11.44,90940.3,903.38,0.0,0.0,0.0
1438,2,1438,46,0.26,10.20,1.49,0.1,0.3,0.-27,7.12,11.43,90937.85,903.58,0.0,0.0,0.0
1484,2,1484,46,0.17,10.36,1.51,0.20,0.-19,0.9,7.18,11.45,90936.71,902.90,0.0,0.0,0.0
1530,2,1530,46,0.63,9.71,0.62,0.5,0.-15,0.7,7.18,11.45,90938.80,903.59,0.0,0.0,0.0
1576,2,1576,46,0.45,9.65,0.60,0.-2,0.-20,0.-5,7.18,11.45,90930.4,903.39,0.0,0.0,0.0
1622,2,1622,46,0.28,9.76,1.1,0.3,0.-14,0.-15,7.12,11.44,90943.18,903.49,0.0,0.0,0.0
1665,2,1665,43,0.74,10.1,0.84,0.-1,0.-12,0.-18,7.12,11.45,90935.47,903.9,0.0,0.0,0.0
1711,2,1711,46,0.21,10.7,1.78,0.4,0.-13,0.-29,7.18,11.45,90943.9,903.19,0.0,0.0,0.0
1762,2,1762,51,0.-41,9.80,0.58,0.14,0.-10,0.-15,7.18,11.45,90935.57,902.79,0.0,0.0,0.0
1808,2,1808,46,0.13,10.9,1.35,0.-7,0.-6,0.-2,7.18,11.46,90936.61,903.40,0.0,0.0,0.0
1854,2,1854,46,0.63,9.91,1.24,0.11,0.-10,0.-8,7.12,11.46,90942.4,903.20,0.0,0.0,0.0
1900,2,1900,46,0.-4,10.3,1.4,0.0,0.-2,0.-28,7.12,11.45,90933.37,902.99,0.0,0.0,0.0
1943,2,1943,43,0.-68,9.83,1.24,0.-6,0.-2,0.-22,7.18,11.45,90938.71,903.20,0.0,0.0,0.0
1989,2,1989,46,0.-13,9.82,1.36,0.8,0.-8,0.-25,7.12,11.46,90934.24,903.50,0.0,0.0,0.0
2036,2,2036,47,0.-46,9.89,1.45,0.-27,0.-4,0.-26,7.18,11.47,90935.38,903.0,0.0,0.0,0.0
2082,2,2082,46,0.8,10.84,3.10,0.-12,0.-18,0.-3,7.12,11.46,90939.76,903.21,0.0,0.0,0.0
2128,2,2128,46,0.6,9.26,1.19,0.42,0.-23,0.0,7.12,11.47,90934.24,903.50,0.0,0.0,0.0
2174,2,2174,46,0.-63,9.87,1.16,0.14,0.-8,0.-4,7.18,11.46,90936.52,903.30,0.0,0.0,0.0
2217,2,2217,43,0.11,9.68,1.31,0.2,0.-1,0.-3,7.18,11.46,90939.76,903.30,0.0,0.0,0.0
2268,2,2268,51,0.-65,12.71,5.2,0.-29,0.1,0.-4,7.25,11.46,90934.33,903.39,0.0,0.0,0.0
2314,2,2314,46,0.29,10.21,1.73,0.18,0.-4,0.-11,7.18,11.47,90940.90,902.90,0.0,0.0,0.0
2360,2,2360,46,0.-7,10.93,1.53,0.17,0.0,0.-17,7.12,11.45,90939.76,902.91,0.0,0.0,0.0
2406,2,2406,46,0.-44,9.93,1.28,0.28,0.-6,0.-19,7.25,11.47,90937.57,903.50,0.0,0.0,0.0
2452,2,2452,46,0.-4,9.93,0.97,0.25,0.5,0.-11,7.25,11.46,90929.8,903.48,0.0,0.0,0.0
2512,2,2512,60,0.3,9.41,0.66,0.24,0.-8,0.-11,7.25,11.44,90938.80,903.10,0.0,0.0,0.0
2558,2,2558,46,0.-16,9.34,1.24,0.7,0.-8,0.-23,7.25,11.45,90934.51,903.30,0.0,0.0,0.0
2604,2,2604,46,0.-31,9.87,1.6,0.0,0.-5,0.-22,7.18,11.46,90936.61,902.91,0.0,0.0,0.0
2650,2,2650,46,0.-35,10.56,0.88,0.13,0.1,0.-4,7.18,11.46,90933.28,903.59,0.0,0.0,0.0
2696,2,2696,46,0.22,10.50,0.88,0.27,0.2,0.5,7.25,11.46,90934.33,904.0,0.0,0.0,0.0
2742,2,2742,46,0.-5,9.53,1.13,0.32,0.5,0.-3,7.18,11.46,90937.66,903.10,0.0,0.0,0.0
2802,2,2802,60,0.-18,9.58,0.54,0.15,0.-7,0.-26,7.18,11.44,90936.71,903.29,0.0,0.0,0.0
2848,2,2848,46,0.-34,10.48,1.15,0.8,0.-16,0.-18,7.12,11.44,90939.94,903.10,0.0,0.0,0.0
2894,2,2894,46,0.-64,10.15,0.55,0.28,0.-18,0.7,7.18,11.45,90935.47,903.10,0.0,0.0,0.0
2940,2,2940,46,0.-15,9.55,0.-16,0.0,0.-2,0.28,7.18,11.45,90938.71,903.10,0.0,0.0,0.0
2986,2,2986,46,0.82,10.2,1.11,0.-8,0.0,0.3,7.18,11.45,90936.52,903.40,0.0,0.0,0.0
3032,2,3032,46,0.43,9.96,0.34,0.1,0.-2,0.-27,7.18,11.46,90931.9,903.89,0.0,0.0,0.0
3076,2,3076,44,0.-23,10.30,0.74,0.-9,0.-5,0.-27,7.18,11.45,90932.14,902.91,0.0,0.0,0.0
3122,2,3122,46,0.-7,10.45,1.3,0.8,0.-6,0.-12,7.18,11.47,90933.28,903.60,0.0,0.0,0.0
3168,2,3168,46,0.-5,10.26,0.46,0.5,0.-8,0.-8,7.25,11.46,90933.18,903.50,0.0,0.0,0.0
3214,2,3214,46,0.14,10.9,0.72,0.9,0.-8,0.-5,7.25,11.47,90937.57,903.40,0.0,0.0,0.0
3260,2,3260,46,0.4,10.2,0.63,0.13,0.-12,0.-9,7.25,11.46,90933.18,903.50,0.0,0.0,0.0
3312,2,3312,52,0.-17,9.78,0.80,0.11,0.-12,0.-12,7.12,11.47,90937.75,903.10,0.0,0.0,0.0
3355,2,3355,43,0.-24,9.63,0.64,0.0,0.-9,0.-10,7.25,11.46,90937.66,902.90,0.0,0.0,0.0
3401,2,3401,46,0.-30,9.86,0.51,0.-3,0.-9,0.-9,7.25,11.46,90929.95,903.30,0.0,0.0,0.0
3447,2,3447,46,0.9,10.17,0.89,0.-1,0.0,0.-7,7.25,11.46,90935.38,903.30,0.0,0.0,0.0
3493,2,3493,46,0.12,9.83,0.64,0.3,0.-7,0.-9,7.18,11.46,90934.33,903.80,0.0,0.0,0.0
3539,2,3539,46,0.3,9.94,0.89,0.-2,0.-8,0.-10,7.25,11.47,90932.4,904.10,0.0,0.0,0.0
3585,2,3585,46,0.5,10.10,0.69,0.1,0.0,0.-15,7.25,11.46,90938.61,903.30,0.0,0.0,0.0
3628,2,3628,43,0.-20,10.30,0.89,0.-3,0.-7,0.-19,7.31,11.47,90933.18,903.21,0.0,0.0,0.0
3674,2,3674,46,0.-60,9.99,0.88,0.4,0.-3,0.-5,7.25,11.46,90935.47,904.10,0.0,0.0,0.0
3720,2,3720,46,0.-29,9.83,0.82,0.2,0.-4,0.2,7.25,11.47,90934.24,903.61,0.0,0.0,0.0
3766,2,3766,46,0.-34,10.6,0.61,0.-6,0.-8,0.5,7.25,11.47,90931.0,903.50,0.0,0.0,0.0
3817,2,3817,51,0.1,10.33,1.32,0.-3,0.-3,0.5,7.25,11.47,90932.14,902.91,0.0,0.0,0.0
3863,2,3863,46,0.22,10.5,0.58,0.4,0.-14,0.-2,7.25,11.46,90941.95,903.60,0.0,0.0,0.0
3906,2,3906,43,0.15,9.65,0.66,0.2,0.-11,0.-10,7.25,11.46,90934.24,902.72,0.0,0.0,0.0
3952,2,3952,46,0.2,9.79,0.75,0.3,0.-5,0.-23,7.31,11.47,90939.76,902.91,0.0,0.0,0.0
3998,2,3998,46,0.-13,10.9,0.84,0.0,0.-7,0.-17,7.25,11.47,90935.28,903.30,0.0,0.0,0.0
4044,2,4044,46,0.-2,10.14,1.1,0.4,0.-7,0.-4,7.25,11.46,90933.9,903.11,0.0,0.0,0.0
4091,2,4091,47,0.30,10.9,0.81,0.13,0.-14,0.4,7.31,11.47,90930.90,903.41,0.0,0.0,0.0
4137,2,4137,46,0.33,9.96,0.90,0.2,0.-12,0.-4,7.31,11.47,90931.0,903.61,0.0,0.0,0.0
4180,2,4180,43,0.-6,10.22,1.23,0.2,0.-11,0.-14,7.37,11.46,90936.52,903.69,0.0,0.0,0.0
4226,2,4226,46,0.-20,9.91,0.86,0.3,0.-10,0.-13,7.31,11.47,90929.85,903.11,0.0,0.0,0.0
4272,2,4272,46,0.-16,9.91,0.86,0.-9,0.-5,0.-9,7.31,11.47,90935.28,902.71,0.0,0.0,0.0
4323,2,4323,51,0.-4,9.96,1.33,0.3,0.-6,0.-15,7.37,11.46,90939.67,903.41,0.0,0.0,0.0
4369,2,4369,46,0.40,9.38,0.77,0.1,0.-1,0.-17,7.31,11.47,90933.9,903.42,0.0,0.0,0.0
4415,2,4415,46,0.10,10.17,1.62,0.-3,0.-1,0.-19,7.37,11.47,90936.52,903.50,0.0,0.0,0.0
4458,2,4458,43,0.-5,10.3,1.11,0.12,0.-9,0.-10,7.31,11.47,90936.42,903.41,0.0,0.0,0.0
4504,2,4504,46,0.7,9.86,0.66,0.-2,0.-13,0.0,7.31,11.47,90940.71,903.51,0.0,0.0,0.0
4550,2,4550,46,0.-1,10.26,1.36,0.7,0.-12,0.-5,7.31,11.47,90928.80,903.81,0.0,0.0,0.0
4596,2,4596,46,0.-15,9.83,0.81,0.9,0.-12,0.-5,7.31,11.48,90933.9,903.2,0.0,0.0,0.0
4642,2,4642,46,0.-15,10.0,1.6,0.0,0.-6,0.-9,7.31,11.48,90931.95,903.32,0.0,0.0,0.0
4688,2,4688,46,0.-22,9.75,0.95,0.3,0.-11,0.-10,7.31,11.48,90936.33,903.22,0.0,0.0,0.0
4731,2,4731,43,0.9,9.65,1.13,0.-1,0.-4,0.-12,7.37,11.49,90934.14,903.62,0.0,0.0,0.0
4777,2,4777,46,0.20,10.16,1.43,0.-7,0.0,0.-21,7.37,11.48,90935.19,903.2,0.0,0.0,0.0
4829,2,4829,52,0.-61,10.70,1.11,0.24,0.0,0.-19,7.31,11.48,90942.90,903.22,0.0,0.0,0.0
4875,2,4875,46,0.12,9.91,0.90,0.5,0.-5,0.5,7.37,11.49,90930.81,903.12,0.0,0.0,0.0
4921,2,4921,46,0.33,9.39,0.34,0.3,0.-14,0.-8,7.37,11.48,90936.33,903.32,0.0,0.0,0.0
4967,2,4967,46,0.-56,10.0,1.30,0.5,0.-7,0.-24,7.31,11.48,90936.33,903.31,0.0,0.0,0.0
5015,2,5015,48,0.47,9.68,0.23,0.3,0.-2,0.-13,7.31,11.48,90936.33,903.51,0.0,0.0,0.0
5061,2,5061,46,0.-33,10.10,1.9,0.3,0.-10,0.-17,7.37,11.48,90934.14,903.12,0.0,0.0,0.0
5108,2,5108,47,0.-47,10.15,1.11,0.6,0.-19,0.6,7.37,11.48,90935.19,903.42,0.0,0.0,0.0
5154,2,5154,46,0.-4,9.74,0.83,0.5,0.-39,0.16,7.37,11.49,90933.9,903.72,0.0,0.0,0.0
5200,2,5200,46,0.-3,9.49,0.76,0.-6,0.-30,0.16,7.31,11.48,90931.85,903.82,0.0,0.0,0.0
5246,2,5246,46,0.-40,9.58,0.87,0.-10,0.4,0.-5,7.37,11.49,90937.38,903.43,0.0,0.0,0.0
5289,2,5289,43,0.24,10.86,2.47,0.1,0.13,0.-18,7.31,11.49,90938.43,902.72,0.0,0.0,0.0
5349,2,5349,60,0.90,8.79,0.55,0.-12,0.0,0.-17,7.31,11.47,90939.67,903.31,0.0,0.0,0.0
5395,2,5395,46,0.-89,9.68,1.81,0.18,0.-17,0.-23,7.31,11.48,90927.57,903.72,0.0,0.0,0.0
5441,2,5441,46,0.-34,10.18,0.62,0.-2,0.-31,0.26,7.31,11.48,90937.38,903.23,0.0,0.0,0.0
5487,2,5487,46,0.41,10.39,1.85,0.0,0.-10,0.-4,7.37,11.49,90933.0,902.92,0.0,0.0,0.0
5533,2,5533,46,0.9,9.85,0.16,0.28,0.5,0.-43,7.31,11.49,90933.0,902.92,0.0,0.0,0.0
5576,2,5576,43,0.-22,10.12,1.44,0.-8,0.9,0.-32,7.31,11.49,90936.24,903.43,0.0,0.0,0.0
5622,2,5622,46,0.-10,10.48,1.72,0.21,0.-13,0.-6,7.31,11.49,90936.24,903.4,0.0,0.0,0.0
5668,2,5668,46,0.38,10.23,1.0,0.2,0.-19,0.14,7.31,11.49,90937.28,903.53,0.0,0.0,0.0
5714,2,5714,46,0.35,10.10,1.13,0.12,0.-2,0.13,7.31,11.49,90934.5,902.93,0.0,0.0,0.0
5760,2,5760,46,0.70,9.84,0.59,0.27,0.-13,0.3,7.37,11.49,90937.28,903.82,0.0,0.0,0.0
5806,2,5806,46,0.38,10.4,0.78,0.2,0.-11,0.-23,7.37,11.49,90935.19,903.52,0.0,0.0,0.0
5855,2,5855,49,0.4,10.31,1.1,0.5,0.-7,0.-37,7.31,11.48,90942.81,903.32,0.0,0.0,0.0
5901,2,5901,46,0.-45,10.70,0.24,0.-2,0.-5,0.-32,7.37,11.49,90931.95,903.23,0.0,0.0,0.0
5947,2,5947,46,0.3,10.1,1.62,0.42,0.11,0.0,7.37,11.49,90933.0,903.3,0.0,0.0,0.0
5993,2,5993,46,0.66,9.11,1.31,0.18,0.-6,0.15,7.31,11.49,90933.0,903.23,0.0,0.0,0.0
6039,2,6039,46,0.66,8.72,1.95,0.8,0.-19,0.0,7.37,11.49,90937.38,902.73,0.0,0.0,0.0
6085,2,6085,46,0.-14,9.5,0.-14,0.-3,0.-12,0.-41,7.31,11.49,90936.24,903.23,0.0,0.0,0.0
6129,2,6129,44,0.-23,10.93,1.68,0.-31,0.-4,0.-51,7.31,11.49,90938.43,903.13,0.0,0.0,0.0
6175,2,6175,46,0.-61,9.87,0.56,0.7,0.0,0.-32,7.37,11.50,90932.90,903.53,0.0,0.0,0.0
6221,2,6221,46,-1.-15,11.23,0.14,0.-51,0.-2,0.6,7.37,11.50,90933.96,903.93,0.0,0.0,0.0
6267,2,6267,46,0.48,11.85,2.90,0.0,0.23,0.3,7.31,11.50,90937.28,902.84,0.0,0.0,0.0
6313,2,6313,46,0.62,9.95,0.65,0.42,0.19,0.-25,7.37,11.50,90937.19,903.74,0.0,0.0,0.0
6364,2,6364,51,0.-72,9.47,1.15,0.20,0.10,0.-37,7.31,11.49,90938.43,903.63,0.0,0.0,0.0
6407,2,6407,43,0.-85,8.90,0.11,0.29,0.9,0.-22,7.31,11.49,90935.10,903.13,0.0,0.0,0.0
6453,2,6453,46,0.-51,9.47,0.90,0.7,0.-5,0.10,7.37,11.49,90940.53,903.63,0.0,0.0,0.0
6499,2,6499,46,0.-2,9.56,1.3,0.19,0.-15,0.20,7.37,11.50,90928.43,903.63,0.0,0.0,0.0
6545,2,6545,46,0.-7,9.32,0.78,0.-13,0.-1,0.17,7.31,11.50,90936.14,903.73,0.0,0.0,0.0
6591,2,6591,46,0.-61,9.68,1.0,0.-1,0.-9,0.9,7.43,11.49,90931.76,903.23,0.0,0.0,0.0
6637,2,6637,46,0.-31,9.90,1.7,0.-6,0.-9,0.7,7.37,11.49,90938.43,902.93,0.0,0.0,0.0
6680,2,6680,43,0.-16,10.6,1.4,0.-14,0.-14,0.4,7.37,11.49,90936.14,903.14,0.0,0.0,0.0
6726,2,6726,46,0.9,10.70,1.20,0.-15,0.-21,0.3,7.37,11.50,90935.0,903.73,0.0,0.0,0.0
6772,2,6772,46,0.28,10.43,0.62,0.-10,0.-14,0.-11,7.37,11.50,90938.34,903.63,0.0,0.0,0.0
6818,2,6818,46,0.39,10.70,1.32,0.6,0.-21,0.-22,7.31,11.49,90936.14,902.84,0.0,0.0,0.0
6869,2,6869,51,0.6,10.6,0.83,0.17,0.-20,0.-20,7.31,11.49,90938.43,903.23,0.0,0.0,0.0
6915,2,6915,46,0.14,9.50,0.36,0.-1,0.-22,0.-6,7.43,11.49,90941.67,903.3,0.0,0.0,0.0
6958,2,6958,43,0.-38,9.75,0.93,0.2,0.-37,0.-19,7.31,11.50,90935.10,903.53,0.0,0.0,0.0
7004,2,7004,46,0.-19,10.5,1.43,0.-6,0.-8,0.-51,7.37,11.50,90933.96,903.23,0.0,0.0,0.0
7050,2,7050,46,0.-20,10.13,1.53,0.-13,0.10,0.-67,7.37,11.49,90930.62,903.63,0.0,0.0,0.0
7096,2,7096,46,-1.-10,10.27,1.41,0.3,0.-19,0.-46,7.31,11.50,90936.14,903.43,0.0,0.0,0.0
7143,2,7143,47,0.-68,9.89,1.22,0.24,0.-21,0.-5,7.37,11.49,90935.0,903.4,0.0,0.0,0.0
7192,2,7192,49,0.-37,9.57,0.71,0.21,0.-16,0.9,7.37,11.50,90939.39,903.14,0.0,0.0,0.0
7238,2,7238,46,0.11,9.61,0.98,0.8,0.-11,0.14,7.43,11.49,90931.76,903.13,0.0,0.0,0.0
7284,2,7284,46,0.11,9.81,1.22,0.17,0.-18,0.7,7.37,11.49,90938.34,903.54,0.0,0.0,0.0
7330,2,7330,46,0.-20,10.26,0.80,0.8,0.-14,0.-1,7.37,11.50,90938.25,903.33,0.0,0.0,0.0
7404,2,7404,74,0.-42,10.33,1.21,0.18,0.-26,0.0,7.37,11.48,90939.67,903.41,0.0,0.0,0.0
7450,2,7450,46,0.-36,10.9,0.72,0.11,0.-14,0.-7,7.37,11.49,90937.28,903.12,0.0,0.0,0.0
7499,2,7499,49,0.-39,10.37,1.8,0.6,0.-10,0.-13,7.37,11.48,90936.24,904.12,0.0,0.0,0.0
7545,2,7545,46,0.-26,10.26,1.28,0.20,0.0,0.-17,7.37,11.49,90938.43,904.13,0.0,0.0,0.0
7591,2,7591,46,0.-34,9.72,0.40,0.10,0.4,0.-19,7.43,11.49,90935.0,903.53,0.0,0.0,0.0
7637,2,7637,46,0.-9,9.62,1.43,0.-18,0.2,0.-13,7.43,11.49,90937.19,904.33,0.0,0.0,0.0
7683,2,7683,46,0.-47,9.73,1.11,0.1,0.-4,0.-17,7.43,11.50,90936.5,903.53,0.0,0.0,0.0
7729,2,7729,46,0.-54,9.95,0.89,0.-5,0.-2,0.-12,7.37,11.50,90936.5,903.64,0.0,0.0,0.0
7778,2,7778,49,0.-29,9.89,0.89,0.3,0.-13,0.1,7.37,11.49,90935.0,903.63,0.0,0.0,0.0
7824,2,7824,46,0.-5,9.73,0.52,0.2,0.-18,0.3,7.50,11.51,90931.76,903.84,0.0,0.0,0.0
7870,2,7870,46,0.5,9.93,1.12,0.0,0.-19,0.-5,7.43,11.50,90930.62,903.83,0.0,0.0,0.0
7922,2,7922,52,0.-16,10.0,0.96,0.4,0.-20,0.-11,7.43,11.49,90938.25,903.14,0.0,0.0,0.0
7968,2,7968,46,0.-29,10.2,1.22,0.0,0.-23,0.-2,7.43,11.50,90937.19,903.74,0.0,0.0,0.0
8014,2,8014,46,0.-17,10.9,1.17,0.7,0.-24,0.0,7.43,11.50,90927.28,903.43,0.0,0.0,0.0
8063,2,8063,49,0.-7,10.0,1.41,0.-1,0.-16,0.-4,7.50,11.50,90938.25,903.54,0.0,0.0,0.0
8109,2,8109,46,0.-51,9.92,1.13,0.4,0.-16,0.-13,7.43,11.49,90935.0,902.85,0.0,0.0,0.0
8156,2,8156,47,0.-46,10.2,1.25,0.-2,0.-9,0.-13,7.43,11.50,90935.0,903.74,0.0,0.0,0.0
8202,2,8202,46,0.-42,10.13,1.30,0.-1,0.-5,0.-17,7.43,11.51,90939.29,903.83,0.0,0.0,0.0
8248,2,8248,46,0.-30,10.21,1.20,0.2,0.10,0.-13,7.43,11.51,90930.53,903.44,0.0,0.0,0.0
8294,2,8294,46,0.1,10.6,1.16,0.10,0.2,0.-1,7.43,11.50,90937.10,903.55,0.0,0.0,0.0
8343,2,8343,49,0.22,9.78,0.79,0.14,0.-3,0.9,7.43,11.51,90936.5,903.84,0.0,0.0,0.0
8389,2,8389,46,0.18,9.78,0.81,0.10,0.-9,0.7,7.43,11.51,90934.91,903.83,0.0,0.0,0.0
8440,2,8440,51,0.23,9.99,1.12,0.7,0.-9,0.-2,7.43,11.50,90939.39,903.44,0.0,0.0,0.0
8486,2,8486,46,0.1,9.92,1.5,0.7,0.-9,0.-10,7.43,11.50,90933.77,903.24,0.0,0.0,0.0
8532,2,8532,46,0.-11,9.83,1.7,0.1,0.-12,0.-7,7.50,11.50,90934.91,903.54,0.0,0.0,0.0
8578,2,8578,46,0.-58,9.76,0.86,0.-4,0.-9,0.-3,7.37,11.50,90934.91,902.85,0.0,0.0,0.0
8627,2,8627,49,0.-28,10.17,1.28,0.-5,0.32,0.-4,7.43,11.51,90940.34,902.85,0.0,0.0,0.0
8673,2,8673,46,0.10,9.98,1.19,0.0,0.19,0.-3,7.43,11.51,90930.53,902.95,0.0,0.0,0.0
8719,2,8719,46,0.49,9.75,0.90,0.4,0.-3,0.-1,7.43,11.51,90935.96,902.95,0.0,0.0,0.0
8765,2,8765,46,0.55,9.97,0.90,0.1,0.-10,0.-11,7.43,11.51,90935.96,903.64,0.0,0.0,0.0
8811,2,8811,46,0.35,10.40,1.52,0.-1,0.-11,0.-26,7.43,11.52,90932.72,903.75,0.0,0.0,0.0
8857,2,8857,46,0.-18,10.9,1.30,0.6,0.-17,0.-25,7.50,11.51,90933.77,903.74,0.0,0.0,0.0
8906,2,8906,49,0.-37,10.1,1.20,0.9,0.-17,0.-10,7.50,11.51,90939.29,903.15,0.0,0.0,0.0
8957,2,8957,51,0.-18,9.68,1.23,0.8,0.-17,0.-3,7.50,11.51,90933.86,903.24,0.0,0.0,0.0
9003,2,9003,46,0.-23,9.74,1.16,0.5,0.-11,0.-8,7.50,11.50,90935.96,902.95,0.0,0.0,0.0
9049,2,9049,46,0.-24,9.94,1.36,0.-4,0.-2,0.-6,7.43,11.51,90934.91,903.5,0.0,0.0,0.0
9095,2,9095,46,0.-11,9.94,1.27,0.5,0.-1,0.0,7.43,11.51,90933.86,903.16,0.0,0.0,0.0
9141,2,9141,46,0.24,9.85,0.98,0.1,0.-5,0.0,7.37,11.52,90933.77,903.65,0.0,0.0,0.0
9191,2,9191,50,0.30,9.99,1.5,0.-1,0.-9,0.-13,7.50,11.52,90937.10,903.54,0.0,0.0,0.0
9237,2,9237,46,0.-14,10.8,1.16,0.2,0.-10,0.-16,7.50,11.52,90932.72,903.44,0.0,0.0,0.0
9283,2,9283,46,0.-14,10.4,1.20,0.2,0.-12,0.-12,7.43,11.51,90931.57,903.94,0.0,0.0,0.0
9329,2,9329,46,0.4,9.86,1.18,0.3,0.-12,0.-10,7.50,11.52,90940.34,903.16,0.0,0.0,0.0
9375,2,9375,46,0.11,9.98,1.34,0.1,0.-14,0.-12,7.50,11.52,90932.72,903.45,0.0,0.0,0.0
9421,2,9421,46,0.-11,9.95,1.34,0.2,0.-15,0.-14,7.50,11.51,90939.10,903.45,0.0,0.0,0.0
9484,2,9484,63,0.-8,9.92,1.35,0.0,0.-13,0.-8,7.56,11.49,90935.0,902.65,0.0,0.0,0.0
9530,2,9530,46,0.-1,9.91,1.37,0.0,0.-13,0.-10,7.50,11.50,90933.86,903.35,0.0,0.0,0.0
9576,2,9576,46,0.-8,9.97,1.37,0.0,0.-10,0.-11,7.50,11.51,90943.67,903.5,0.0,0.0,0.0
9622,2,9622,46,0.-10,9.98,1.22,0.0,0.-10,0.-7,7.50,11.52,90934.82,902.86,0.0,0.0,0.0
9668,2,9668,46,0.7,10.3,1.56,0.0,0.-10,0.-8,7.50,11.52,90931.48,902.85,0.0,0.0,0.0
9714,2,9714,46,0.4,9.95,1.31,0.4,0.-10,0.-14,7.50,11.52,90933.67,903.26,0.0,0.0,0.0
9775,2,9775,61,0.-17,9.86,1.36,0.4,0.-13,0.-13,7.50,11.51,90937.0,902.75,0.0,0.0,0.0
9821,2,9821,46,0.-23,9.90,1.45,0.4,0.-10,0.-10,7.50,11.51,90931.57,903.16,0.0,0.0,0.0
9867,2,9867,46,0.-4,9.90,1.33,0.2,0.-9,0.-9,7.50,11.51,90939.20,903.16,0.0,0.0,0.0
9913,2,9913,46,0.4,10.1,1.54,0.1,0.-11,0.-11,7.56,11.53,90938.6,903.55,0.0,0.0,0.0
9959,2,9959,46,0.-18,10.9,1.59,0.8,0.-10,0.-11,7.56,11.53,90933.77,903.25,0.0,0.0,0.0
10012,2,10012,53,0.-13,9.92,1.35,0.4,0.-10,0.-10,7.56,11.52,90937.10,903.65,0.0,0.0,0.0
10061,2,10061,49,0.-16,9.85,1.45,0.8,0.-7,0.-13,7.56,11.52,90935.96,903.35,0.0,0.0,0.0
10107,2,10107,46,0.-14,9.98,1.31,0.3,0.-7,0.-11,7.50,11.53,90943.49,903.46,0.0,0.0,0.0
10153,2,10153,46,0.-14,10.0,1.41,0.3,0.-10,0.-8,7.50,11.53,90935.96,903.27,0.0,0.0,0.0
10200,2,10200,47,0.-14,9.92,1.35,0.4,0.-11,0.-6,7.50,11.53,90933.67,903.46,0.0,0.0,0.0
10246,2,10246,46,0.-5,10.1,1.42,0.4,0.-9,0.-10,7.50,11.52,90939.20,902.47,0.0,0.0,0.0
10292,2,10292,46,0.-11,9.94,1.42,0.3,0.-10,0.-12,7.43,11.53,90936.91,903.67,0.0,0.0,0.0
10335,2,10335,43,0.-19,9.87,1.43,0.2,0.-10,0.-10,7.50,11.53,90939.10,903.6,0.0,0.0,0.0
10381,2,10381,46,0.-21,9.91,1.44,0.2,0.-12,0.-8,7.50,11.52,90938.6,903.17,0.0,0.0,0.0
10427,2,10427,46,0.-19,9.90,1.42,0.3,0.-10,0.-8,7.50,11.53,90935.77,903.47,0.0,0.0,0.0
10473,2,10473,46,0.-13,10.3,1.42,0.4,0.-8,0.-7,7.50,11.53,90930.34,903.36,0.0,0.0,0.0
10524,2,10524,51,0.0,10.7,1.48,0.3,0.-10,0.-6,7.50,11.52,90932.63,903.56,0.0,0.0,0.0
10570,2,10570,46,0.0,9.98,1.46,0.5,0.-10,0.-11,7.56,11.53,90941.39,903.5,0.0,0.0,0.0
10613,2,10613,43,0.-17,9.91,1.34,0.3,0.-10,0.-13,7.50,11.53,90933.67,903.26,0.0,0.0,0.0
10659,2,10659,46,0.-9,9.91,1.48,0.2,0.-12,0.-10,7.50,11.52,90933.67,903.16,0.0,0.0,0.0
10705,2,10705,46,0.-22,9.89,1.50,0.3,0.-12,0.-10,7.50,11.53,90936.91,903.36,0.0,0.0,0.0
10751,2,10751,46,0.-22,9.89,1.33,0.5,0.-11,0.-7,7.50,11.52,90934.72,902.77,0.0,0.0,0.0
10797,2,10797,46,0.-11,9.95,1.45,0.3,0.-11,0.-8,7.50,11.53,90942.35,903.36,0.0,0.0,0.0
10843,2,10843,46,0.-3,9.98,1.41,0.2,0.-11,0.-10,7.50,11.53,90935.86,903.36,0.0,0.0,0.0
10886,2,10886,43,0.-15,10.1,1.52,0.3,0.-11,0.-11,7.50,11.53,90932.63,903.26,0.0,0.0,0.0
10932,2,10932,46,0.-13,9.94,1.42,0.6,0.-10,0.-11,7.50,11.54,90941.29,903.96,0.0,0.0,0.0
10978,2,10978,46,0.-13,9.88,1.38,0.2,0.-11,0.-10,7.50,11.53,90940.15,903.17,0.0,0.0,0.0
11029,2,11029,51,0.-20,9.92,1.49,0.4,0.-11,0.-13,7.50,11.52,90937.0,902.86,0.0,0.0,0.0
11075,2,11075,46,0.-25,9.93,1.40,0.4,0.-11,0.-13,7.50,11.54,90934.72,903.46,0.0,0.0,0.0
11121,2,11121,46,0.-33,10.1,1.49,0.5,0.-10,0.-9,7.50,11.53,90942.44,902.97,0.0,0.0,0.0
11164,2,11164,43,0.-17,10.2,1.49,0.6,0.-8,0.-7,7.50,11.52,90943.49,903.27,0.0,0.0,0.0
11211,2,11211,47,0.-19,9.97,1.50,0.8,0.-5,0.-10,7.56,11.53,90932.53,903.66,0.0,0.0,0.0
11257,2,11257,46,0.-24,9.83,1.47,0.7,0.-7,0.-10,7.56,11.54,90933.58,902.77,0.0,0.0,0.0
11303,2,11303,46,0.-26,9.84,1.46,0.7,0.-7,0.-9,7.56,11.53,90939.1,902.97,0.0,0.0,0.0
11349,2,11349,46,0.-25,9.88,1.33,0.3,0.-8,0.-8,7.50,11.53,90935.86,903.27,0.0,0.0,0.0
11398,2,11398,49,0.-15,9.99,1.46,0.5,0.-9,0.-7,7.56,11.54,90933.58,903.56,0.0,0.0,0.0
11444,2,11444,46,0.-5,9.88,1.42,0.5,0.-9,0.-9,7.50,11.53,90933.67,903.47,0.0,0.0,0.0
11490,2,11490,46,0.-13,10.4,1.38,0.4,0.-11,0.-13,7.56,11.54,90930.25,903.8,0.0,0.0,0.0
11541,2,11541,51,0.-29,9.97,1.61,0.6,0.-11,0.-11,7.50,11.53,90937.96,903.76,0.0,0.0,0.0
11587,2,11587,46,0.-22,9.84,1.39,0.11,0.-10,0.-10,7.50,11.53,90933.58,903.36,0.0,0.0,0.0
11633,2,11633,46,0.-22,9.69,1.19,0.6,0.-9,0.-9,7.56,11.53,90939.1,903.17,0.0,0.0,0.0
11682,2,11682,49,0.-34,9.85,1.29,0.4,0.-8,0.-8,7.50,11.53,90937.96,903.76,0.0,0.0,0.0
11728,2,11728,46,0.-19,10.2,1.31,0.1,0.-8,0.-2,7.50,11.53,90933.58,903.17,0.0,0.0,0.0
11774,2,11774,46,0.-11,10.9,1.23,0.5,0.-7,0.-6,7.56,11.54,90935.77,903.77,0.0,0.0,0.0
11820,2,11820,46,0.-11,10.8,1.36,0.4,0.-8,0.-9,7.50,11.54,90937.96,903.47,0.0,0.0,0.0
11866,2,11866,46,0.-25,10.0,1.45,0.9,0.-8,0.-8,7.56,11.54,90936.82,903.8,0.0,0.0,0.0
11912,2,11912,46,0.0,9.80,1.26,0.6,0.-8,0.-7,7.50,11.55,90940.15,903.28,0.0,0.0,0.0
11955,2,11955,43,0.-11,9.90,1.25,0.5,0.-8,0.-10,7.50,11.55,90932.44,903.67,0.0,0.0,0.0
12001,2,12001,46,0.-21,9.96,1.45,0.4,0.-9,0.-6,7.56,11.55,90935.67,903.68,0.0,0.0,0.0
12062,2,12062,61,0.-2,9.93,1.29,0.8,0.-9,0.-5,7.50,11.53,90940.15,903.27,0.0,0.0,0.0
12108,2,12108,46,0.0,9.89,1.21,0.5,0.-9,0.-8,7.50,11.52,90934.72,903.56,0.0,0.0,0.0
12154,2,12154,46,0.-18,9.94,1.32,0.4,0.-9,0.-10,7.43,11.54,90938.6,903.27,0.0,0.0,0.0
12200,2,12200,46,0.-13,9.99,1.30,0.5,0.-9,0.-8,7.50,11.54,90938.92,903.28,0.0,0.0,0.0
12244,2,12244,44,0.-5,9.91,1.34,0.5,0.-9,0.-9,7.56,11.54,90929.20,902.78,0.0,0.0,0.0
12290,2,12290,46,0.-16,9.99,1.22,0.3,0.-10,0.-8,7.50,11.55,90930.25,903.17,0.0,0.0,0.0
12336,2,12336,46,0.-7,10.8,1.50,0.1,0.-12,0.-7,7.56,11.54,90933.58,903.28,0.0,0.0,0.0
12382,2,12382,46,0.-18,10.2,1.36,0.7,0.-8,0.-11,7.56,11.55,90935.67,903.48,0.0,0.0,0.0
12428,2,12428,46,0.-12,9.84,1.18,0.2,0.-8,0.-8,7.56,11.54,90935.67,903.18,0.0,0.0,0.0
12474,2,12474,46,0.-3,9.92,1.46,0.2,0.-8,0.-10,7.62,11.54,90937.87,903.57,0.0,0.0,0.0
12517,2,12517,43,0.-20,9.96,1.31,0.5,0.-9,0.-9,7.56,11.54,90936.82,902.97,0.0,0.0,0.0
12569,2,12569,52,0.-8,9.87,1.32,0.4,0.-8,0.-6,7.56,11.54,90937.96,903.96,0.0,0.0,0.0
12615,2,12615,46,0.1,9.91,1.38,0.4,0.-7,0.-9,7.50,11.54,90934.63,903.17,0.0,0.0,0.0
12661,2,12661,46,0.-12,9.93,1.37,0.3,0.-8,0.-11,7.56,11.54,90935.77,903.68,0.0,0.0,0.0
12707,2,12707,46,0.-21,9.94,1.25,0.3,0.-8,0.-7,7.56,11.54,90935.77,903.97,0.0,0.0,0.0
12753,2,12753,46,0.-22,10.2,1.32,0.6,0.-7,0.-6,7.50,11.54,90935.77,903.67,0.0,0.0,0.0
12796,2,12796,43,0.5,9.89,1.42,0.2,0.-7,0.-9,7.56,11.54,90933.58,903.17,0.0,0.0,0.0
12842,2,12842,46,0.0,9.89,1.32,0.4,0.-8,0.-13,7.56,11.54,90930.25,903.28,0.0,0.0,0.0
12888,2,12888,46,0.12,9.98,1.14,0.2,0.-16,0.-18,7.50,11.55,90941.10,903.68,0.0,0.0,0.0
12934,2,12934,46,0.-48,10.19,1.57,0.1,0.-15,0.-24,7.50,11.54,90936.82,903.58,0.0,0.0,0.0
12980,2,12980,46,0.-73,9.92,1.40,0.6,0.-9,0.-17,7.56,11.54,90933.49,903.28,0.0,0.0,0.0
13026,2,13026,46,0.-40,9.75,1.41,0.7,0.-2,0.-4,7.56,11.55,90931.39,903.37,0.0,0.0,0.0
13074,2,13074,48,0.10,9.72,1.29,0.5,0.-3,0.-4,7.62,11.54,90933.58,903.57,0.0,0.0,0.0
13120,2,13120,46,0.0,9.98,1.45,0.0,0.-9,0.-9,7.56,11.54,90933.58,903.87,0.0,0.0,0.0
13166,2,13166,46,0.-82,9.90,1.28,0.7,0.-12,0.-12,7.56,11.54,90933.49,903.58,0.0,0.0,0.0
13212,2,13212,46,0.11,10.20,1.21,0.10,0.7,0.-14,7.56,11.55,90932.44,903.57,0.0,0.0,0.0
13259,2,13259,47,0.28,10.9,1.52,0.-2,0.2,0.-27,7.62,11.56,90933.49,903.8,0.0,0.0,0.0
13305,2,13305,46,0.-44,9.94,1.38,0.8,0.-15,0.-23,7.56,11.55,90934.63,903.8,0.0,0.0,0.0
13348,2,13348,43,0.-59,9.83,1.40,0.3,0.-18,0.-10,7.56,11.55,90933.49,903.38,0.0,0.0,0.0
13394,2,13394,46,0.-55,9.82,1.30,0.4,0.-7,0.-15,7.50,11.55,90933.49,902.79,0.0,0.0,0.0
13440,2,13440,46,0.-35,9.64,1.6,0.1,0.-3,0.-14,7.56,11.56,90943.21,903.79,0.0,0.0,0.0
13486,2,13486,46,0.4,9.95,1.36,0.-10,0.-9,0.-8,7.56,11.56,90939.87,903.48,0.0,0.0,0.0
13532,2,13532,46,0.-49,10.19,1.69,0.1,0.-24,0.-16,7.56,11.56,90935.58,903.60,0.0,0.0,0.0
13588,2,13588,56,-1.-22,9.98,1.46,0.7,0.-8,0.-11,7.56,11.56,90939.87,903.49,0.0,0.0,0.0
13634,2,13634,46,0.-67,9.95,1.65,0.8,0.2,0.-7,7.56,11.56,90934.44,903.59,0.0,0.0,0.0
13680,2,13680,46,0.-31,9.73,1.18,0.13,0.0,0.-11,7.56,11.56,90939.87,903.20,0.0,0.0,0.0
13726,2,13726,46,0.-43,9.80,1.3,0.4,0.-13,0.-6,7.56,11.57,90935.49,902.80,0.0,0.0,0.0
13772,2,13772,46,0.-51,10.10,1.67,0.0,0.-16,0.-1,7.50,11.57,90936.53,903.30,0.0,0.0,0.0
13818,2,13818,46,0.-30,10.5,1.45,0.6,0.-11,0.-7,7.56,11.56,90935.39,903.20,0.0,0.0,0.0
13871,2,13871,53,0.-54,9.85,1.33,0.5,0.-10,0.-16,7.62,11.56,90935.49,903.79,0.0,0.0,0.0
13917,2,13917,46,0.-70,9.87,1.41,0.7,0.-10,0.-8,7.56,11.56,90933.30,904.0,0.0,0.0,0.0
13963,2,13963,46,0.-46,9.86,1.49,0.8,0.-14,0.1,7.56,11.56,90936.53,903.10,0.0,0.0,0.0
14009,2,14009,46,0.-15,10.1,1.33,0.3,0.-12,0.-8,7.56,11.56,90938.73,903.49,0.0,0.0,0.0
14055,2,14055,46,0.-75,10.2,1.12,0.8,0.-7,0.-18,7.56,11.57,90937.68,903.10,0.0,0.0,0.0
14115,2,14115,60,0.-39,10.3,1.53,0.6,0.-9,0.2,7.56,11.55,90933.39,903.88,0.0,0.0,0.0
14158,2,14158,43,0.1,9.87,1.56,0.7,0.-12,0.0,7.62,11.56,90942.7,903.48,0.0,0.0,0.0
14204,2,14204,46,0.-35,9.84,1.18,0.1,0.-15,0.-13,7.56,11.56,90932.15,903.10,0.0,0.0,0.0
14250,2,14250,46,0.-71,9.96,1.45,0.-2,0.-10,0.-16,7.62,11.57,90933.21,902.51,0.0,0.0,0.0
14297,2,14297,47,0.-47,10.1,1.37,0.3,0.-4,0.-6,7.62,11.57,90935.49,903.60,0.0,0.0,0.0
14343,2,14343,46,0.9,9.81,1.43,0.1,0.-9,0.-9,7.56,11.57,90937.68,903.10,0.0,0.0,0.0
14389,2,14389,46,0.-43,9.76,1.23,0.1,0.-13,0.-16,7.62,11.56,90936.63,903.39,0.0,0.0,0.0
14432,2,14432,43,0.-56,10.0,1.55,0.1,0.-12,0.-11,7.56,11.56,90943.11,903.60,0.0,0.0,0.0
14478,2,14478,46,0.-41,9.99,1.43,0.6,0.-10,0.-9,7.56,11.57,90940.92,902.90,0.0,0.0,0.0
14524,2,14524,46,0.-37,9.90,1.47,0.3,0.-13,0.-7,7.50,11.56,90934.35,903.60,0.0,0.0,0.0
14570,2,14570,46,0.-40,9.83,1.37,0.6,0.-9,0.-9,7.56,11.57,90937.68,903.30,0.0,0.0,0.0
14621,2,14621,51,0.-41,9.82,1.47,0.0,0.-10,0.-11,7.56,11.56,90936.53,903.69,0.0,0.0,0.0
14667,2,14667,46,0.-44,9.92,1.39,0.0,0.-12,0.-12,7.56,11.56,90933.39,903.30,0.0,0.0,0.0
14710,2,14710,43,0.-54,10.6,1.43,0.3,0.-11,0.-9,7.56,11.57,90930.6,903.30,0.0,0.0,0.0
14756,2,14756,46,0.-43,9.92,1.62,0.6,0.-10,0.-7,7.50,11.56,90938.82,904.19,0.0,0.0,0.0
14802,2,14802,46,0.-43,9.64,1.22,0.7,0.-9,0.-6,7.56,11.56,90940.92,903.10,0.0,0.0,0.0
14848,2,14848,46,0.-21,10.4,1.54,0.0,0.-10,0.-6,7.56,11.57,90932.15,903.40,0.0,0.0,0.0
14894,2,14894,46,0.-35,10.17,1.52,0.0,0.-11,0.-9,7.56,11.57,90936.53,903.30,0.0,0.0,0.0
14940,2,14940,46,0.-34,9.85,1.55,0.6,0.-12,0.-10,7.50,11.57,90935.49,903.20,0.0,0.0,0.0
14983,2,14983,43,0.-75,9.90,1.57,0.1,0.-14,0.-3,7.56,11.57,90944.16,903.10,0.0,0.0,0.0
15029,2,15029,46,0.-79,10.39,1.80,0.0,0.-12,0.36,7.56,11.56,90933.21,903.60,0.0,0.0,0.0
15075,2,15075,46,0.92,9.56,1.40,0.22,0.-14,0.29,7.62,11.56,90928.82,903.10,0.0,0.0,0.0
15126,2,15126,51,0.57,9.40,0.72,0.3,0.-5,0.-35,7.62,11.56,90936.53,903.60,0.0,0.0,0.0
15172,2,15172,46,0.-46,10.4,1.44,0.-7,0.1,0.-57,7.62,11.58,90935.39,903.50,0.0,0.0,0.0
15221,2,15221,49,-1.0,10.29,1.83,0.8,0.-6,0.-20,7.56,11.57,90939.78,903.80,0.0,0.0,0.0
15267,2,15267,46,0.-19,9.76,1.54,0.11,0.-18,0.16,7.56,11.57,90933.21,903.30,0.0,0.0,0.0
15314,2,15314,47,0.18,9.62,1.7,0.7,0.-11,0.1,7.62,11.58,90933.21,903.41,0.0,0.0,0.0
15360,2,15360,46,0.-4,9.86,1.25,0.0,0.-2,0.-21,7.68,11.57,90939.78,903.1,0.0,0.0,0.0
15406,2,15406,46,0.-24,9.96,1.62,0.0,0.0,0.-31,7.62,11.57,90934.25,904.0,0.0,0.0,0.0
15452,2,15452,46,0.-45,10.12,1.71,0.4,0.-12,0.-10,7.56,11.57,90935.39,902.81,0.0,0.0,0.0
15501,2,15501,49,0.-44,9.83,1.38,0.10,0.-16,0.4,7.62,11.57,90937.59,903.10,0.0,0.0,0.0
15547,2,15547,46,0.-13,9.80,1.29,0.4,0.-9,0.0,7.62,11.57,90936.53,903.41,0.0,0.0,0.0
15593,2,15593,46,0.-9,10.2,1.62,0.3,0.-2,0.-14,7.62,11.58,90929.96,903.21,0.0,0.0,0.0
15644,2,15644,51,0.-24,9.79,1.29,0.8,0.-5,0.-16,7.62,11.56,90935.39,903.0,0.0,0.0,0.0
15690,2,15690,46,0.-26,9.92,1.28,0.3,0.-12,0.-9,7.68,11.57,90935.39,903.10,0.0,0.0,0.0
15736,2,15736,46,0.-55,9.87,1.61,0.8,0.-12,0.-6,7.68,11.57,90932.6,903.60,0.0,0.0,0.0
15779,2,15779,43,0.-21,9.82,1.33,0.7,0.-6,0.-1,7.62,11.57,90933.11,903.21,0.0,0.0,0.0
15825,2,15825,46,0.-23,9.87,1.38,0.5,0.-7,0.-1,7.68,11.58,90931.1,903.1,0.0,0.0,0.0
15871,2,15871,46,0.12,10.1,1.51,0.6,0.-8,0.-1,7.62,11.57,90938.64,903.41,0.0,0.0,0.0
15917,2,15917,46,0.-26,9.87,1.47,0.8,0.-11,0.-10,7.62,11.57,90936.53,903.40,0.0,0.0,0.0
15963,2,15963,46,0.-37,10.4,1.50,0.3,0.-8,0.-6,7.62,11.58,90935.39,903.41,0.0,0.0,0.0
16009,2,16009,46,0.-68,9.99,1.92,0.11,0.-17,0.19,7.62,11.57,90933.21,903.61,0.0,0.0,0.0
16053,2,16053,44,0.34,9.66,1.18,0.17,0.-15,0.36,7.62,11.57,90933.30,903.61,0.0,0.0,0.0
16099,2,16099,46,0.74,9.95,0.96,0.10,0.-12,0.10,7.62,11.57,90936.53,903.49,0.0,0.0,0.0
16159,2,16159,60,0.6,10.24,1.37,0.7,0.3,0.-26,7.62,11.56,90938.82,903.49,0.0,0.0,0.0
16205,2,16205,46,0.24,9.87,1.14,0.9,0.-2,0.-17,7.68,11.56,90934.35,902.90,0.0,0.0,0.0
16251,2,16251,46,0.32,9.75,1.9,0.8,0.-12,0.-9,7.68,11.56,90934.35,903.60,0.0,0.0,0.0
16297,2,16297,46,0.0,9.89,1.33,0.5,0.-16,0.-12,7.68,11.57,90938.73,903.19,0.0,0.0,0.0
16341,2,16341,44,0.-22,9.79,1.41,0.5,0.-7,0.-13,7.68,11.57,90932.15,903.60,0.0,0.0,0.0
16387,2,16387,46,0.-5,9.84,1.39,0.5,0.-5,0.-2,7.68,11.57,90934.35,903.60,0.0,0.0,0.0
16433,2,16433,46,0.27,9.97,1.45,0.4,0.-2,0.1,7.68,11.56,90931.1,903.1,0.0,0.0,0.0
16479,2,16479,46,0.46,10.0,1.9,0.7,0.-4,0.-4,7.75,11.57,90934.25,902.91,0.0,0.0,0.0
16525,2,16525,46,0.43,10.32,1.46,0.0,0.3,0.-25,7.68,11.58,90928.73,902.52,0.0,0.0,0.0
16571,2,16571,46,0.11,10.7,1.30,0.5,0.0,0.-32,7.68,11.57,90929.96,903.41,0.0,0.0,0.0
16614,2,16614,43,0.-9,9.77,0.96,0.4,0.-11,0.-16,7.75,11.57,90936.44,902.81,0.0,0.0,0.0
16666,2,16666,52,0.-21,9.99,1.16,0.4,0.-16,0.-1,7.75,11.57,90937.68,903.40,0.0,0.0,0.0
16712,2,16712,46,0.18,9.84,1.53,0.8,0.-12,0.-2,7.62,11.57,90937.59,903.10,0.0,0.0,0.0
16758,2,16758,46,0.-5,9.74,1.31,0.7,0.-7,0.-6,7.68,11.57,90927.67,903.21,0.0,0.0,0.0
16804,2,16804,46,0.9,9.91,1.20,0.5,0.-7,0.-4,7.68,11.58,90932.6,902.81,0.0,0.0,0.0
16850,2,16850,46,0.0,10.13,1.26,0.4,0.-9,0.0,7.75,11.57,90940.82,903.10,0.0,0.0,0.0
16893,2,16893,43,0.56,10.12,1.40,0.4,0.-7,0.-4,7.68,11.57,90934.25,902.91,0.0,0.0,0.0
16939,2,16939,46,0.-7,9.84,0.88,0.5,0.-10,0.-16,7.68,11.58,90932.6,903.51,0.0,0.0,0.0
16985,2,16985,46,0.-1,9.90,1.30,0.1,0.-10,0.-10,7.68,11.58,90933.11,903.32,0.0,0.0,0.0
17031,2,17031,46,0.19,10.3,1.45,0.5,0.-13,0.-6,7.75,11.58,90941.88,903.61,0.0,0.0,0.0
17077,2,17077,46,0.11,9.79,1.30,0.4,0.-12,0.-7,7.68,11.58,90935.30,903.11,0.0,0.0,0.0
17123,2,17123,46,0.-10,9.92,1.19,0.3,0.-7,0.-9,7.68,11.58,90936.44,902.91,0.0,0.0,0.0
17184,2,17184,61,0.30,10.9,1.32,0.3,0.-7,0.-8,7.75,11.56,90936.63,903.69,0.0,0.0,0.0
17230,2,17230,46,0.21,10.1,1.23,0.5,0.-13,0.-8,7.75,11.56,90937.59,902.90,0.0,0.0,0.0
17276,2,17276,46,0.2,9.84,1.23,0.7,0.-12,0.-9,7.75,11.58,90934.25,903.1,0.0,0.0,0.0
17322,2,17322,46,0.21,9.81,1.25,0.2,0.-7,0.-10,7.75,11.58,90942.92,903.51,0.0,0.0,0.0
17369,2,17369,47,0.10,10.5,1.42,0.0,0.-8,0.-11,7.68,11.58,90938.54,902.62,0.0,0.0,0.0
17415,2,17415,46,0.0,10.3,1.29,0.4,0.-9,0.-6,7.68,11.58,90943.2,903.80,0.0,0.0,0.0
17458,2,17458,43,0.24,9.91,1.20,0.6,0.-9,0.-4,7.75,11.58,90937.39,902.71,0.0,0.0,0.0
17504,2,17504,46,0.19,9.98,1.33,0.3,0.-9,0.-8,7.75,11.59,90933.1,903.22,0.0,0.0,0.0
17550,2,17550,46,0.24,9.94,1.35,0.3,0.-8,0.-12,7.75,11.59,90935.21,903.32,0.0,0.0,0.0
17596,2,17596,46,0.20,10.2,1.30,0.4,0.-8,0.-12,7.81,11.59,90940.64,903.51,0.0,0.0,0.0
17642,2,17642,46,0.11,9.94,1.23,0.4,0.-12,0.-11,7.68,11.59,90936.35,903.12,0.0,0.0,0.0
17693,2,17693,51,0.0,9.92,1.43,0.5,0.-9,0.-11,7.68,11.59,90941.88,903.62,0.0,0.0,0.0
17736,2,17736,43,0.-5,9.82,1.2,0.7,0.-6,0.-8,7.75,11.58,90937.39,902.63,0.0,0.0,0.0
17782,2,17782,46,0.28,10.6,1.48,0.2,0.-8,0.-7,7.68,11.58,90941.78,903.62,0.0,0.0,0.0
17828,2,17828,46,0.2,10.9,1.32,0.7,0.-10,0.-8,7.68,11.59,90938.45,903.42,0.0,0.0,0.0
17874,2,17874,46,0.22,9.84,1.17,0.6,0.-9,0.-11,7.68,11.59,90937.39,902.92,0.0,0.0,0.0
17920,2,17920,46,0.7,9.91,1.23,0.3,0.-10,0.-12,7.68,11.60,90937.30,903.92,0.0,0.0,0.0
17966,2,17966,46,0.4,10.3,1.47,0.3,0.-9,0.-8,7.68,11.60,90929.78,903.81,0.0,0.0,0.0
18009,2,18009,43,0.6,9.90,1.12,0.9,0.-7,0.-7,7.68,11.61,90935.21,903.23,0.0,0.0,0.0
18055,2,18055,46,0.30,9.80,1.11,0.5,0.-8,0.-8,7.75,11.59,90927.49,903.32,0.0,0.0,0.0
18101,2,18101,46,0.6,10.1,1.48,0.4,0.-11,0.-12,7.75,11.60,90938.35,902.73,0.0,0.0,0.0
18147,2,18147,46,0.-17,10.1,1.11,0.7,0.-8,0.-9,7.68,11.60,90935.11,902.83,0.0,0.0,0.0
18199,2,18199,52,0.50,9.93,1.30,0.2,0.-8,0.-8,7.68,11.59,90936.25,903.3,0.0,0.0,0.0
18252,2,18252,53,0.8,9.93,1.38,0.4,0.-12,0.-15,7.75,11.59,90933.1,903.52,0.0,0.0,0.0
18298,2,18298,46,0.-10,9.91,1.24,0.4,0.-9,0.-10,7.68,11.60,90941.78,902.83,0.0,0.0,0.0
18344,2,18344,46,0.27,9.94,1.39,0.3,0.-8,0.-7,7.75,11.58,90938.45,903.23,0.0,0.0,0.0
18391,2,18391,47,0.-11,10.0,1.26,0.4,0.-9,0.-10,7.75,11.60,90936.25,903.53,0.0,0.0,0.0
18437,2,18437,46,0.16,9.93,1.20,0.6,0.-7,0.-6,7.68,11.59,90941.59,903.42,0.0,0.0,0.0
18483,2,18483,46,0.39,9.98,1.40,0.2,0.-9,0.-8,7.75,11.60,90937.30,903.42,0.0,0.0,0.0
18531,2,18531,48,0.2,9.89,1.20,0.6,0.-12,0.-11,7.75,11.59,90935.11,902.93,0.0,0.0,0.0
18577,2,18577,46,0.10,9.93,1.40,0.2,0.-10,0.-11,7.75,11.60,90936.25,903.82,0.0,0.0,0.0
18623,2,18623,46,0.6,9.83,1.33,0.4,0.-12,0.-11,7.68,11.61,90935.11,903.13,0.0,0.0,0.0
18669,2,18669,46,0.7,9.92,1.14,0.3,0.-12,0.-7,7.75,11.60,90939.40,903.63,0.0,0.0,0.0
18730,2,18730,61,0.11,9.94,1.38,0.4,0.-12,0.-10,7.68,11.58,90937.39,903.12,0.0,0.0,0.0
18776,2,18776,46,0.8,9.91,1.29,0.5,0.-9,0.-14,7.68,11.59,90939.59,903.33,0.0,0.0,0.0
18819,2,18819,43,0.-11,9.88,1.32,0.4,0.-10,0.-12,7.68,11.60,90931.87,903.73,0.0,0.0,0.0
18865,2,18865,46,0.18,9.95,1.37,0.3,0.-9,0.-6,7.62,11.60,90937.30,903.53,0.0,0.0,0.0
18911,2,18911,46,0.23,10.0,1.23,0.5,0.-10,0.-11,7.81,11.61,90937.30,903.43,0.0,0.0,0.0
18957,2,18957,46,0.-14,9.96,1.44,0.4,0.-12,0.-14,7.68,11.60,90935.11,903.13,0.0,0.0,0.0
19003,2,19003,46,0.12,9.79,1.25,0.6,0.-8,0.-9,7.75,11.59,90936.25,903.23,0.0,0.0,0.0
19049,2,19049,46,0.24,9.81,1.27,0.2,0.-11,0.-10,7.75,11.60,90939.40,903.4,0.0,0.0,0.0
19092,2,19092,43,0.-19,9.99,1.25,0.3,0.-10,0.-11,7.75,11.61,90933.97,903.53,0.0,0.0,0.0
19138,2,19138,46,0.8,10.13,1.19,0.6,0.-9,0.-6,7.62,11.61,90940.54,903.23,0.0,0.0,0.0
19184,2,19184,46,0.15,9.91,1.34,0.5,0.-12,0.-11,7.68,11.61,90930.73,903.43,0.0,0.0,0.0
19235,2,19235,51,0.-1,9.89,1.34,0.5,0.-10,0.-9,7.75,11.59,90932.92,903.33,0.0,0.0,0.0
19281,2,19281,46,0.7,9.99,1.39,0.3,0.-9,0.-11,7.68,11.60,90941.68,903.23,0.0,0.0,0.0
19327,2,19327,46,0.-22,9.93,1.29,0.4,0.-7,0.-10,7.68,11.60,90938.35,903.53,0.0,0.0,0.0
19370,2,19370,43,0.28,9.94,1.29,0.5,0.-8,0.-5,7.68,11.60,90938.45,902.93,0.0,0.0,0.0
19417,2,19417,47,0.10,9.93,1.29,0.3,0.-10,0.-10,7.75,11.60,90937.30,902.84,0.0,0.0,0.0
19463,2,19463,46,0.-5,9.89,1.27,0.7,0.-7,0.-11,7.68,11.59,90939.50,903.3,0.0,0.0,0.0
19509,2,19509,46,0.4,9.96,1.31,0.2,0.-10,0.-5,7.75,11.60,90931.87,902.93,0.0,0.0,0.0
19555,2,19555,46,0.13,10.0,1.44,0.5,0.-9,0.-7,7.75,11.60,90933.97,902.93,0.0,0.0,0.0
19601,2,19601,46,0.0,9.86,1.21,0.4,0.-9,0.-13,7.75,11.60,90937.30,903.43,0.0,0.0,0.0
19644,2,19644,43,0.10,9.89,1.47,0.2,0.-9,0.-12,7.68,11.59,90940.54,903.62,0.0,0.0,0.0
19690,2,19690,46,0.-7,9.96,1.28,0.5,0.-10,0.-9,7.68,11.61,90939.50,903.63,0.0,0.0,0.0
19741,2,19741,51,0.-4,9.86,1.28,0.6,0.-9,0.-8,7.75,11.60,90938.35,902.64,0.0,0.0,0.0
19787,2,19787,46,0.-1,9.99,1.23,0.5,0.-6,0.-7,7.75,11.60,90931.87,903.33,0.0,0.0,0.0
19833,2,19833,46,0.27,9.98,1.32,0.4,0.-9,0.-7,7.68,11.60,90937.30,903.43,0.0,0.0,0.0
19879,2,19879,46,0.-1,10.0,1.19,0.4,0.-10,0.-12,7.75,11.61,90936.25,903.42,0.0,0.0,0.0
19922,2,19922,43,0.-8,9.86,1.32,0.4,0.-10,0.-10,7.75,11.60,90932.92,903.53,0.0,0.0,0.0
19968,2,19968,46,0.-1,9.93,1.42,0.4,0.-9,0.-7,7.75,11.60,90940.54,903.23,0.0,0.0,0.0
20014,2,20014,46,0.17,9.94,1.24,0.2,0.-8,0.-8,7.75,11.60,90939.50,903.54,0.0,0.0,0.0
20060,2,20060,46,0.4,10.0,1.39,0.3,0.-10,0.-10,7.68,11.60,90930.73,903.43,0.0,0.0,0.0
20106,2,20106,46,0.5,9.94,1.26,0.5,0.-10,0.-10,7.68,11.60,90940.54,903.63,0.0,0.0,0.0
20152,2,20152,46,0.-15,10.0,1.29,0.6,0.-10,0.-9,7.68,11.60,90935.2,903.23,0.0,0.0,0.0
20195,2,20195,43,0.20,9.93,1.36,0.3,0.-8,0.-6,7.75,11.60,90935.11,903.73,0.0,0.0,0.0
20246,2,20246,51,0.15,9.94,1.22,0.4,0.-9,0.-11,7.68,11.60,90936.16,903.23,0.0,0.0,0.0
20292,2,20292,46,0.-9,9.93,1.30,0.5,0.-11,0.-10,7.81,11.61,90933.97,903.34,0.0,0.0,0.0
20338,2,20338,46,0.0,9.93,1.35,0.5,0.-9,0.-7,7.68,11.60,90938.35,903.3,0.0,0.0,0.0
20384,2,20384,46,0.0,9.93,1.29,0.4,0.-7,0.-9,7.68,11.61,90938.35,902.94,0.0,0.0,0.0
20431,2,20431,47,0.17,9.98,1.26,0.6,0.-8,0.-6,7.75,11.61,90936.16,902.64,0.0,0.0,0.0
20474,2,20474,43,0.7,10.2,1.46,0.5,0.-12,0.-8,7.68,11.61,90939.40,903.14,0.0,0.0,0.0
20520,2,20520,46,0.10,9.93,1.33,0.8,0.-6,0.-13,7.68,11.60,90939.40,903.54,0.0,0.0,0.0
20566,2,20566,46,0.38,9.76,1.15,0.9,0.-5,0.-18,7.75,11.61,90938.35,903.23,0.0,0.0,0.0
20612,2,20612,46,0.-36,9.84,1.16,0.4,0.-10,0.-11,7.75,11.61,90935.2,903.43,0.0,0.0,0.0
20658,2,20658,46,0.17,10.6,1.42,0.5,0.-11,0.0,7.75,11.61,90939.40,903.74,0.0,0.0,0.0
20704,2,20704,46,0.-3,9.88,1.22,0.5,0.-9,0.-8,7.75,11.61,90937.30,902.64,0.0,0.0,0.0
20761,2,20761,57,0.-45,9.82,1.37,0.5,0.0,0.3,7.68,11.59,90935.11,902.73,0.0,0.0,0.0
20807,2,20807,46,0.92,9.89,1.18,0.6,0.-6,0.5,7.68,11.59,90931.87,903.63,0.0,0.0,0.0
20853,2,20853,46,0.28,10.20,1.28,0.-2,0.-14,0.-6,7.75,11.60,90937.30,903.14,0.0,0.0,0.0
20899,2,20899,46,0.-2,10.20,1.45,0.8,0.-7,0.-7,7.68,11.61,90929.49,903.63,0.0,0.0,0.0
20945,2,20945,46,0.51,9.76,1.0,0.8,0.-6,0.-17,7.68,11.61,90940.45,903.54,0.0,0.0,0.0
20994,2,20994,49,0.-5,9.87,1.27,0.0,0.-11,0.-17,7.68,11.61,90935.2,903.74,0.0,0.0,0.0
21040,2,21040,46,0.-5,10.7,1.43,0.4,0.-11,0.-8,7.75,11.61,90941.50,903.74,0.0,0.0,0.0
21086,2,21086,46,0.19,9.87,1.35,0.5,0.-10,0.-8,7.68,11.61,90932.82,902.74,0.0,0.0,0.0
21132,2,21132,46,0.9,9.82,1.10,0.4,0.-9,0.-12,7.68,11.62,90941.50,903.74,0.0,0.0,0.0
21178,2,21178,46,0.8,10.0,1.33,0.4,0.-9,0.-9,7.75,11.62,90933.87,903.64,0.0,0.0,0.0
21224,2,21224,46,0.16,9.93,1.27,0.5,0.-12,0.-9,7.75,11.62,90933.87,903.54,0.0,0.0,0.0
21280,2,21280,56,0.2,9.95,1.24,0.2,0.-10,0.-12,7.75,11.60,90937.30,903.63,0.0,0.0,0.0
21326,2,21326,46,0.9,9.96,1.38,0.5,0.-6,0.-9,7.68,11.61,90930.64,903.54,0.0,0.0,0.0
21372,2,21372,46,0.19,9.94,1.16,0.5,0.-10,0.-9,7.75,11.61,90931.78,902.64,0.0,0.0,0.0
21418,2,21418,46,0.7,9.92,1.14,0.3,0.-10,0.-10,7.81,11.60,90930.73,903.24,0.0,0.0,0.0
21465,2,21465,47,0.13,9.98,1.35,0.5,0.-9,0.-11,7.75,11.61,90945.88,902.45,0.0,0.0,0.0
21511,2,21511,46,0.29,9.90,1.35,0.3,0.-10,0.-10,7.81,11.62,90933.87,903.35,0.0,0.0,0.0
21560,2,21560,49,0.-9,9.84,1.31,0.6,0.-11,0.-13,7.68,11.62,90938.16,902.45,0.0,0.0,0.0
21606,2,21606,46,0.22,10.11,1.24,0.0,0.-8,0.-8,7.75,11.61,90938.26,902.55,0.0,0.0,0.0
21652,2,21652,46,0.10,10.10,1.28,0.7,0.-12,0.-15,7.81,11.61,90937.11,903.44,0.0,0.0,0.0
21698,2,21698,46,0.-5,9.99,1.22,0.5,0.-13,0.-13,7.75,11.61,90937.11,903.34,0.0,0.0,0.0
21744,2,21744,46,0.-4,9.91,1.35,0.4,0.-10,0.-13,7.81,11.62,90935.97,903.55,0.0,0.0,0.0
21795,2,21795,51,0.-10,9.87,1.28,0.5,0.-8,0.-8,7.75,11.61,90939.31,903.24,0.0,0.0,0.0
21838,2,21838,43,0.28,9.98,1.34,0.3,0.-9,0.-7,7.81,11.61,90934.92,903.64,0.0,0.0,0.0
21884,2,21884,46,0.4,9.95,1.30,0.4,0.-11,0.-11,7.81,11.62,90931.59,903.15,0.0,0.0,0.0
21930,2,21930,46,0.10,10.10,1.35,0.4,0.-10,0.-10,7.75,11.62,90938.16,903.64,0.0,0.0,0.0
21976,2,21976,46,0.-15,9.87,1.10,0.8,0.-10,0.-12,7.75,11.62,90933.78,903.16,0.0,0.0,0.0
22022,2,22022,46,0.-13,9.95,1.23,0.4,0.-9,0.-7,7.75,11.62,90933.78,903.25,0.0,0.0,0.0
22068,2,22068,46,0.-8,9.94,1.27,0.9,0.-8,0.-4,7.81,11.62,90932.73,903.94,0.0,0.0,0.0
22111,2,22111,43,0.28,9.93,1.15,0.4,0.-6,0.-5,7.81,11.62,90931.68,903.25,0.0,0.0,0.0
22157,2,22157,46,0.26,9.99,1.44,0.4,0.-12,0.-14,7.81,11.62,90933.87,903.35,0.0,0.0,0.0
22203,2,22203,46,0.-11,9.89,0.98,0.5,0.-13,0.-13,7.81,11.62,90938.7,903.55,0.0,0.0,0.0
22249,2,22249,46,0.0,9.82,1.23,0.5,0.-10,0.-11,7.75,11.62,90934.92,903.16,0.0,0.0,0.0
22300,2,22300,51,0.-17,9.99,1.48,0.2,0.-11,0.-9,7.75,11.62,90930.54,903.5,0.0,0.0,0.0
22346,2,22346,46,0.1,9.85,1.1,0.10,0.-7,0.-3,7.75,11.62,90939.31,903.55,0.0,0.0,0.0
22389,2,22389,43,0.22,10.4,0.98,0.3,0.-8,0.-3,7.81,11.61,90934.92,903.85,0.0,0.0,0.0
22435,2,22435,46,0.20,10.24,1.66,0.7,0.-9,0.-11,7.75,11.62,90937.11,902.65,0.0,0.0,0.0
22482,2,22482,47,0.-7,9.89,1.2,0.11,0.-6,0.-14,7.75,11.62,90932.64,902.85,0.0,0.0,0.0
22528,2,22528,46,0.-4,9.80,1.26,0.2,0.-5,0.-12,7.81,11.62,90940.26,903.35,0.0,0.0,0.0
22574,2,22574,46,0.23,9.90,1.22,0.5,0.-4,0.-12,7.81,11.62,90937.11,904.5,0.0,0.0,0.0
22620,2,22620,46,0.18,9.88,1.4,0.2,0.-10,0.-14,7.81,11.62,90936.7,903.65,0.0,0.0,0.0
22664,2,22664,44,0.-19,10.8,1.13,0.7,0.-13,0.-14,7.75,11.62,90937.2,903.35,0.0,0.0,0.0
22710,2,22710,46,0.9,9.96,1.5,0.9,0.-8,0.-16,7.75,11.62,90932.73,903.45,0.0,0.0,0.0
22756,2,22756,46,0.-30,9.83,1.7,0.4,0.-13,0.-19,7.81,11.62,90932.73,903.45,0.0,0.0,0.0
22817,2,22817,61,0.-15,9.96,1.39,0.3,0.-10,0.-11,7.87,11.61,90931.68,903.44,0.0,0.0,0.0
22863,2,22863,46,0.-16,10.1,1.1,0.5,0.-10,0.-9,7.87,11.62,90934.92,903.25,0.0,0.0,0.0
22909,2,22909,46,0.-42,9.86,1.16,0.4,0.-6,0.-10,7.81,11.62,90939.31,903.94,0.0,0.0,0.0
22951,2,22951,42,0.-16,9.88,1.0,0.6,0.-5,0.-3,7.75,11.62,90928.35,903.74,0.0,0.0,0.0
22997,2,22997,46,0.-11,9.96,1.22,0.5,0.-7,0.0,7.75,11.62,90937.2,903.45,0.0,0.0,0.0
23043,2,23043,46,0.11,10.6,1.31,0.4,0.-7,0.0,7.75,11.62,90932.64,903.75,0.0,0.0,0.0
23089,2,23089,46,0.16,10.6,1.21,0.6,0.-7,0.-7,7.81,11.62,90937.2,903.55,0.0,0.0,0.0
23135,2,23135,46,0.-5,10.4,1.12,0.7,0.-9,0.-11,7.75,11.63,90930.44,903.55,0.0,0.0,0.0
23181,2,23181,46,0.-2,9.97,1.12,0.6,0.-10,0.-5,7.75,11.63,90941.40,903.24,0.0,0.0,0.0
23224,2,23224,43,0.22,9.93,1.22,0.6,0.-11,0.-7,7.75,11.62,90931.59,903.26,0.0,0.0,0.0
23270,2,23270,46,0.-12,9.89,0.98,0.3,0.-8,0.-11,7.81,11.62,90942.45,903.85,0.0,0.0,0.0
23322,2,23322,52,0.0,10.10,1.30,0.3,0.-8,0.-6,7.87,11.62,90938.16,903.15,0.0,0.0,0.0
23368,2,23368,46,0.17,10.1,1.22,0.8,0.-11,0.-7,7.81,11.63,90934.83,903.36,0.0,0.0,0.0
23414,2,23414,46,0.19,10.7,1.18,0.5,0.-12,0.-13,7.81,11.63,90935.88,903.16,0.0,0.0,0.0
23463,2,23463,49,0.-12,9.93,1.22,0.8,0.-11,0.-17,7.81,11.62,90943.60,903.16,0.0,0.0,0.0
23510,2,23510,47,0.4,9.82,0.97,0.6,0.-10,0.-15,7.81,11.62,90929.39,902.85,0.0,0.0,0.0
23556,2,23556,46,0.-16,9.97,1.11,0.7,0.-13,0.-16,7.75,11.62,90940.26,903.36,0.0,0.0,0.0
23602,2,23602,46,0.-30,10.1,1.9,0.7,0.-11,0.-10,7.75,11.63,90939.12,903.95,0.0,0.0,0.0
23648,2,23648,46,0.12,9.94,1.1,0.8,0.-10,0.-8,7.81,11.63,90939.21,903.35,0.0,0.0,0.0
23694,2,23694,46,0.-10,10.5,1.13,0.4,0.-11,0.-12,7.75,11.64,90932.64,903.6,0.0,0.0,0.0
23743,2,23743,49,0.-13,10.1,1.19,0.8,0.-9,0.-11,7.75,11.62,90929.30,902.86,0.0,0.0,0.0
23789,2,23789,46,0.-10,10.1,0.97,0.10,0.-7,0.-11,7.81,11.63,90930.35,903.35,0.0,0.0,0.0
23840,2,23840,51,0.-2,9.89,1.4,0.8,0.-7,0.-11,7.81,11.62,90940.26,903.6,0.0,0.0,0.0
23886,2,23886,46,0.-18,10.5,1.10,0.8,0.-12,0.-9,7.75,11.63,90932.64,902.96,0.0,0.0,0.0
23932,2,23932,46,0.-11,9.99,0.95,0.9,0.-6,0.-7,7.81,11.63,90937.2,903.46,0.0,0.0,0.0
23978,2,23978,46,0.4,9.91,0.76,0.10,0.-6,0.-11,7.81,11.63,90934.73,903.27,0.0,0.0,0.0
24021,2,24021,43,0.-18,10.11,1.14,0.7,0.-10,0.-13,7.75,11.62,90936.83,903.66,0.0,0.0,0.0
24067,2,24067,46,0.-31,10.3,0.93,0.9,0.-8,0.-8,7.81,11.63,90927.11,903.36,0.0,0.0,0.0
24113,2,24113,46,0.-13,9.93,0.82,0.12,0.-7,0.-8,7.75,11.64,90935.78,903.56,0.0,0.0,0.0
24159,2,24159,46,0.-1,9.91,0.76,0.4,0.-9,0.-8,7.75,11.64,90933.68,903.67,0.0,0.0,0.0
24205,2,24205,46,0.-19,10.7,1.6,0.4,0.-12,0.-8,7.81,11.64,90934.73,903.27,0.0,0.0,0.0
24251,2,24251,46,0.-15,10.18,1.2,0.10,0.-6,0.-8,7.75,11.63,90936.92,903.76,0.0,0.0,0.0
24294,2,24294,43,0.-10,9.93,0.75,0.10,0.-5,0.-12,7.81,11.64,90933.68,903.26,0.0,0.0,0.0
24345,2,24345,51,0.-18,10.2,0.74,0.8,0.-4,0.-13,7.81,11.62,90938.7,903.16,0.0,0.0,0.0
24391,2,24391,46,0.-32,10.11,0.88,0.8,0.-5,0.-7,7.81,11.62,90936.92,903.36,0.0,0.0,0.0
24437,2,24437,46,0.-7,9.93,0.71,0.10,0.-3,0.-6,7.81,11.64,90935.78,903.56,0.0,0.0,0.0
24483,2,24483,46,0.-2,9.93,0.74,0.7,0.-4,0.-10,7.81,11.63,90930.35,903.76,0.0,0.0,0.0
24530,2,24530,47,0.-7,9.95,0.70,0.4,0.-9,0.-12,7.81,11.64,90931.50,903.36,0.0,0.0,0.0
24573,2,24573,43,0.-27,10.9,0.81,0.8,0.-9,0.-11,7.81,11.63,90929.21,902.67,0.0,0.0,0.0
24619,2,24619,46,0.-22,9.96,0.57,0.8,0.-6,0.-8,7.81,11.64,90930.35,903.47,0.0,0.0,0.0
24665,2,24665,46,0.6,9.92,0.67,0.5,0.-7,0.-12,7.81,11.64,90929.21,903.57,0.0,0.0,0.0
24711,2,24711,46,0.-22,10.7,0.83,0.2,0.-10,0.-14,7.87,11.64,90932.45,903.87,0.0,0.0,0.0
24757,2,24757,46,0.-34,9.97,0.66,0.7,0.-9,0.-9,7.75,11.64,90932.45,903.27,0.0,0.0,0.0
24803,2,24803,46,0.-3,9.84,0.71,0.4,0.-6,0.-9,7.81,11.64,90932.64,903.16,0.0,0.0,0.0
24873,2,24873,70,0.-18,10.14,0.80,0.1,0.-11,0.-8,7.75,11.62,90930.64,903.5,0.0,0.0,0.0
24919,2,24919,46,0.-25,9.97,0.90,0.6,0.-12,0.-9,7.81,11.62,90937.2,903.46,0.0,0.0,0.0
24965,2,24965,46,0.-13,9.88,0.64,0.3,0.-8,0.-12,7.75,11.63,90938.7,903.55,0.0,0.0,0.0
25011,2,25011,46,0.-21,10.3,0.90,0.0,0.-10,0.-10,7.75,11.64,90935.88,904.6,0.0,0.0,0.0
25057,2,25057,46,0.-22,10.11,0.84,0.4,0.-9,0.-6,7.81,11.64,90942.35,903.56,0.0,0.0,0.0
25103,2,25103,46,0.-21,9.98,0.51,0.5,0.-9,0.-6,7.81,11.63,90936.92,903.6,0.0,0.0,0.0
25146,2,25146,43,0.-8,10.1,0.68,0.4,0.-6,0.-9,7.81,11.64,90932.54,903.76,0.0,0.0,0.0
25192,2,25192,46,0.0,10.3,0.58,0.4,0.-7,0.-10,7.87,11.63,90939.2,903.57,0.0,0.0,0.0
25238,2,25238,46,0.-17,10.8,0.61,0.4,0.-15,0.-8,7.81,11.64,90933.59,903.67,0.0,0.0,0.0
25284,2,25284,46,0.-29,10.2,0.86,0.3,0.-13,0.-6,7.81,11.64,90935.68,903.37,0.0,0.0,0.0
25330,2,25330,46,0.-13,10.1,0.72,0.6,0.-7,0.-8,7.81,11.65,90927.1,903.68,0.0,0.0,0.0
25382,2,25382,52,0.-7,9.90,0.75,0.0,0.-10,0.-11,7.81,11.64,90934.83,903.16,0.0,0.0,0.0
25425,2,25425,43,0.-22,10.0,0.87,0.0,0.-9,0.-11,7.81,11.63,90934.54,902.67,0.0,0.0,0.0
25471,2,25471,46,0.-18,10.6,0.74,0.3,0.-8,0.-5,7.81,11.64,90932.45,902.96,0.0,0.0,0.0
25517,2,25517,46,0.-26,9.93,0.67,0.7,0.-6,0.-6,7.81,11.64,90932.54,903.57,0.0,0.0,0.0
25564,2,25564,47,0.-12,10.10,0.79,0.6,0.-5,0.-5,7.81,11.65,90925.87,903.17,0.0,0.0,0.0
25610,2,25610,46,0.32,10.6,0.69,0.7,0.-7,0.-6,7.87,11.64,90935.68,903.57,0.0,0.0,0.0
25659,2,25659,49,0.-17,10.4,0.65,0.1,0.-16,0.-9,7.87,11.65,90942.26,903.8,0.0,0.0,0.0
25705,2,25705,46,0.-13,9.87,0.94,0.4,0.-12,0.-13,7.87,11.65,90931.30,903.97,0.0,0.0,0.0
25751,2,25751,46,0.-9,9.88,0.85,0.1,0.-7,0.-15,7.81,11.65,90937.88,903.48,0.0,0.0,0.0
25797,2,25797,46,0.-55,9.87,0.73,0.4,0.-12,0.-8,7.81,11.65,90930.25,903.68,0.0,0.0,0.0
25843,2,25843,46,0.6,9.98,0.83,0.5,0.-8,0.-1,7.87,11.65,90935.68,903.18,0.0,0.0,0.0
25894,2,25894,51,0.-19,10.7,0.95,0.5,0.-11,0.-13,7.81,11.64,90932.45,903.48,0.0,0.0,0.0
25937,2,25937,43,0.-15,10.11,0.54,0.1,0.-8,0.-10,7.81,11.65,90933.50,903.38,0.0,0.0,0.0
25983,2,25983,46,0.-14,10.24,0.90,0.6,0.-8,0.-8,7.81,11.66,90931.21,903.88,0.0,0.0,0.0
26029,2,26029,46,0.3,9.77,0.69,0.6,0.-8,0.-9,7.81,11.66,90929.11,903.78,0.0,0.0,0.0
26075,2,26075,46,0.-4,10.1,0.65,0.1,0.-11,0.-11,7.81,11.66,90933.40,903.48,0.0,0.0,0.0
26121,2,26121,46,0.-8,10.0,0.99,0.0,0.-16,0.-6,7.81,11.66,90937.78,903.58,0.0,0.0,0.0
26167,2,26167,46,0.-41,9.99,0.71,0.9,0.-12,0.-6,7.81,11.65,90941.12,903.28,0.0,0.0,0.0
26210,2,26210,43,0.16,10.1,0.84,0.4,0.-8,0.-4,7.87,11.66,90934.54,902.98,0.0,0.0,0.0
26256,2,26256,46,0.15,9.95,0.84,0.5,0.-13,0.-11,7.81,11.65,90931.30,902.78,0.0,0.0,0.0
26302,2,26302,46,0.-45,9.93,0.82,0.5,0.-13,0.-9,7.81,11.65,90941.3,903.18,0.0,0.0,0.0
26348,2,26348,46,0.-5,9.91,0.86,0.5,0.-5,0.-8,7.87,11.65,90925.78,903.28,0.0,0.0,0.0
26400,2,26400,52,0.-8,10.5,0.66,0.4,0.-8,0.-7,7.81,11.65,90927.1,902.97,0.0,0.0,0.0
26446,2,26446,46,0.2,10.8,0.77,0.6,0.-13,0.-4,7.87,11.65,90933.50,903.48,0.0,0.0,0.0
26489,2,26489,43,0.0,9.97,0.83,0.7,0.-8,0.-13,7.87,11.65,90938.92,903.28,0.0,0.0,0.0
26535,2,26535,46,0.-24,10.7,0.89,0.9,0.-1,0.-12,7.87,11.64,90936.74,903.48,0.0,0.0,0.0
26582,2,26582,47,0.14,9.92,0.88,0.8,0.-5,0.-6,7.81,11.65,90937.78,903.38,0.0,0.0,0.0
26628,2,26628,46,0.-20,10.3,0.67,0.9,0.-6,0.-9,7.87,11.65,90933.40,903.9,0.0,0.0,0.0
26674,2,26674,46,0.19,10.7,0.67,0.10,0.-3,0.-9,7.87,11.66,90936.74,903.68,0.0,0.0,0.0
26720,2,26720,46,0.28,9.80,0.86,0.0,0.-20,0.-14,7.87,11.65,90933.50,903.68,0.0,0.0,0.0
26763,2,26763,43,0.-51,10.8,0.89,0.0,0.-22,0.-14,7.87,11.66,90933.40,903.58,0.0,0.0,0.0
26809,2,26809,46,0.-7,10.4,0.96,0.0,0.-12,0.-7,7.93,11.66,90933.40,902.99,0.0,0.0,0.0
26855,2,26855,46,0.-20,10.8,0.69,0.1,0.-10,0.-18,7.93,11.66,90934.45,903.79,0.0,0.0,0.0
26907,2,26907,52,0.-8,9.93,1.0,0.2,0.-11,0.-8,7.87,11.65,90937.78,903.29,0.0,0.0,0.0
26953,2,26953,46,0.3,10.9,0.81,0.5,0.-14,0.-9,8.0,11.66,90935.59,903.48,0.0,0.0,0.0
26999,2,26999,46,0.-21,10.14,0.87,0.2,0.-12,0.-13,7.93,11.67,90932.35,903.87,0.0,0.0,0.0
27046,2,27046,47,0.-20,10.16,0.86,0.8,0.-13,0.-18,7.93,11.66,90932.25,903.38,0.0,0.0,0.0
27092,2,27092,46,0.-46,9.76,0.73,0.5,0.-11,0.-17,7.93,11.66,90936.64,903.79,0.0,0.0,0.0
27138,2,27138,46,0.-50,9.69,0.66,0.8,0.-1,0.-2,7.93,11.66,90939.97,903.19,0.0,0.0,0.0
27184,2,27184,46,0.13,10.12,0.83,0.2,0.-5,0.5,7.93,11.66,90942.7,903.39,0.0,0.0,0.0
27230,2,27230,46,0.20,10.26,0.86,0.6,0.-7,0.0,7.93,11.67,90939.97,902.60,0.0,0.0,0.0
27276,2,27276,46,0.33,9.99,0.93,0.7,0.-10,0.-14,7.87,11.66,90926.92,903.9,0.0,0.0,0.0
27319,2,27319,43,0.-15,9.87,0.69,0.2,0.-7,0.-31,7.93,11.66,90935.59,902.59,0.0,0.0,0.0
27365,2,27365,46,0.-71,9.76,0.88,0.-2,0.-2,0.-24,7.93,11.66,90936.64,903.79,0.0,0.0,0.0
27424,2,27424,59,0.0,10.4,0.61,0.0,0.-7,0.-1,7.93,11.64,90929.2,903.98,0.0,0.0,0.0
27470,2,27470,46,0.7,10.24,1.0,0.0,0.-14,0.-13,7.93,11.66,90941.12,903.18,0.0,0.0,0.0
27516,2,27516,46,0.-52,9.87,0.94,0.3,0.-14,0.-18,7.93,11.65,90929.2,903.49,0.0,0.0,0.0
27565,2,27565,49,0.-17,9.97,0.89,0.1,0.-10,0.-16,7.93,11.67,90927.96,903.29,0.0,0.0,0.0
27612,2,27612,47,0.-53,9.91,0.91,0.0,0.-14,0.-13,7.87,11.66,90935.59,903.29,0.0,0.0,0.0
27658,2,27658,46,0.-45,9.97,0.99,0.3,0.-14,0.0,8.0,11.66,90931.11,903.29,0.0,0.0,0.0
27704,2,27704,46,0.5,9.99,0.83,0.3,0.-11,0.-3,8.0,11.67,90933.31,903.50,0.0,0.0,0.0
27750,2,27750,46,0.-26,9.92,1.0,0.0,0.-12,0.-20,7.87,11.67,90936.54,903.40,0.0,0.0,0.0
27796,2,27796,46,0.-76,9.93,0.93,0.6,0.-8,0.-16,7.93,11.67,90936.54,903.20,0.0,0.0,0.0
27845,2,27845,49,0.0,9.86,1.0,0.5,0.-8,0.-2,7.87,11.68,90939.88,903.29,0.0,0.0,0.0
27891,2,27891,46,0.-35,10.11,0.81,0.2,0.-15,0.-10,7.93,11.67,90930.7,903.10,0.0,0.0,0.0
27944,2,27944,53,0.-38,10.13,1.7,0.6,0.-6,0.-12,7.93,11.67,90928.92,903.9,0.0,0.0,0.0
27990,2,27990,46,0.-41,9.82,0.87,0.7,0.-11,0.-10,7.93,11.67,90938.83,903.59,0.0,0.0,0.0
28036,2,28036,46,0.-18,10.4,0.95,0.1,0.-13,0.-7,7.87,11.67,90939.78,903.19,0.0,0.0,0.0
28082,2,28082,46,0.-28,10.15,0.96,0.3,0.-11,0.-13,7.93,11.68,90939.88,903.1,0.0,0.0,0.0
28125,2,28125,43,0.-24,9.89,0.80,0.5,0.-10,0.-17,7.93,11.68,90935.40,903.30,0.0,0.0,0.0
28171,2,28171,46,0.-51,9.98,0.95,0.5,0.-14,0.-13,7.87,11.68,90939.78,902.80,0.0,0.0,0.0
28217,2,28217,46,0.-44,9.99,1.24,0.12,0.-7,0.-7,7.93,11.68,90936.45,903.20,0.0,0.0,0.0
28263,2,28263,46,0.-26,9.80,0.71,0.15,0.-3,0.-7,7.87,11.69,90936.45,903.50,0.0,0.0,0.0
28309,2,28309,46,0.-18,10.10,0.82,0.7,0.-7,0.-9,8.0,11.69,90933.31,902.81,0.0,0.0,0.0
28355,2,28355,46,0.-25,10.24,0.68,0.11,0.-13,0.-8,7.87,11.68,90932.25,903.19,0.0,0.0,0.0
28398,2,28398,43,0.-14,10.14,0.93,0.11,0.-17,0.-10,7.87,11.67,90933.31,903.0,0.0,0.0,0.0
28449,2,28449,51,0.-60,9.97,0.78,0.16,0.-12,0.-17,7.87,11.68,90932.25,903.20,0.0,0.0,0.0
28495,2,28495,46,0.-40,9.87,1.10,0.16,0.0,0.-12,7.93,11.67,90934.35,902.70,0.0,0.0,0.0
28541,2,28541,46,0.-95,9.71,0.40,0.17,0.0,0.-8,7.93,11.68,90939.78,902.60,0.0,0.0,0.0
28587,2,28587,46,0.-55,10.6,0.65,0.17,0.15,0.1,7.87,11.68,90933.21,903.29,0.0,0.0,0.0
28634,2,28634,47,0.3,10.17,0.66,0.25,0.9,0.2,7.93,11.68,90932.16,903.19,0.0,0.0,0.0
28677,2,28677,43,0.-14,10.6,0.24,0.18,0.3,0.-9,7.93,11.67,90933.21,903.40,0.0,0.0,0.0
28723,2,28723,46,0.-22,9.78,0.29,0.21,0.4,0.-17,7.87,11.68,90934.45,903.9,0.0,0.0,0.0
28769,2,28769,46,0.-63,9.96,0.-33,0.21,0.0,0.2,7.87,11.68,90937.60,903.40,0.0,0.0,0.0
28815,2,28815,46,0.52,10.1,0.20,0.4,0.-11,0.19,7.93,11.68,90940.83,903.30,0.0,0.0,0.0
28861,2,28861,46,0.-58,9.97,0.57,0.8,0.-13,0.8,7.93,11.68,90938.64,903.41,0.0,0.0,0.0
28907,2,28907,46,0.13,9.77,0.-2,0.6,0.0,0.-5,7.87,11.68,90940.92,903.29,0.0,0.0,0.0
28955,2,28955,48,0.-30,9.99,0.16,0.-7,0.-2,0.-8,7.93,11.67,90934.35,903.50,0.0,0.0,0.0
29001,2,29001,46,0.10,10.25,0.25,0.4,0.-10,0.8,7.93,11.67,90937.60,903.29,0.0,0.0,0.0
29047,2,29047,46,0.44,10.10,0.9,0.0,0.-24,0.7,7.93,11.68,90937.60,903.31,0.0,0.0,0.0
29093,2,29093,46,0.26,10.10,0.64,0.8,0.-21,0.-1,7.87,11.68,90938.64,903.30,0.0,0.0,0.0
29139,2,29139,46,0.25,9.90,0.-2,0.9,0.-21,0.-5,8.0,11.68,90938.64,903.50,0.0,0.0,0.0
29185,2,29185,46,0.-19,9.98,0.61,0.2,0.-17,0.-8,7.93,11.68,90937.60,903.20,0.0,0.0,0.0
29229,2,29229,44,0.10,9.74,0.24,0.1,0.0,0.-15,7.87,11.68,90935.40,903.80,0.0,0.0,0.0
29275,2,29275,46,0.13,10.16,0.0,0.-2,0.-8,0.-8,7.87,11.67,90931.11,903.40,0.0,0.0,0.0
29321,2,29321,46,0.37,10.14,0.33,0.5,0.-15,0.4,7.87,11.69,90936.45,903.11,0.0,0.0,0.0
29367,2,29367,46,0.6,9.91,0.33,0.5,0.-15,0.-4,7.93,11.69,90936.45,902.91,0.0,0.0,0.0
29413,2,29413,46,0.13,10.3,0.26,0.6,0.-3,0.-14,7.93,11.68,90930.92,903.11,0.0,0.0,0.0
29477,2,29477,64,0.11,9.99,0.16,0.0,0.-7,0.-9,7.81,11.67,90928.92,903.19,0.0,0.0,0.0
29523,2,29523,46,0.20,9.99,0.55,0.0,0.-16,0.1,7.93,11.68,90932.25,903.0,0.0,0.0,0.0
29569,2,29569,46,0.17,9.99,0.35,0.2,0.-11,0.-4,7.87,11.68,90936.45,903.40,0.0,0.0,0.0
29615,2,29615,46,0.10,10.16,0.62,0.1,0.-4,0.-14,7.93,11.69,90932.16,903.60,0.0,0.0,0.0
29662,2,29662,47,0.41,9.83,0.16,0.11,0.-2,0.-11,8.0,11.69,90938.64,903.80,0.0,0.0,0.0
29708,2,29708,46,0.27,10.9,0.22,0.0,0.-8,0.-11,7.87,11.69,90930.92,903.61,0.0,0.0,0.0
29757,2,29757,49,0.10,10.4,0.58,0.5,0.-10,0.-3,7.93,11.69,90936.45,902.81,0.0,0.0,0.0
29803,2,29803,46,0.20,9.90,0.10,0.-2,0.-6,0.-14,7.87,11.69,90932.7,903.90,0.0,0.0,0.0
29849,2,29849,46,0.0,10.31,0.88,0.0,0.-1,0.-7,7.93,11.69,90937.50,903.91,0.0,0.0,0.0
29895,2,29895,46,0.28,9.73,0.19,0.5,0.6,0.-18,7.93,11.68,90927.68,903.51,0.0,0.0,0.0
29941,2,29941,46,0.18,10.9,0.71,0.0,0.11,0.-22,8.0,11.69,90936.35,903.22,0.0,0.0,0.0
29993,2,29993,52,0.37,9.83,0.12,0.5,0.-10,0.0,8.0,11.69,90939.69,903.61,0.0,0.0,0.0
30042,2,30042,49,0.44,10.43,0.74,0.2,0.-22,0.-2,8.0,11.69,90942.93,903.61,0.0,0.0,0.0
30088,2,30088,46,0.-2,9.81,0.30,0.4,0.0,0.-28,7.93,11.69,90941.89,903.21,0.0,0.0,0.0
30134,2,30134,46,0.-27,9.75,0.16,0.4,0.5,0.-22,7.93,11.69,90932.7,902.91,0.0,0.0,0.0
30180,2,30180,46,0.22,10.19,0.78,0.4,0.-13,0.9,8.0,11.69,90931.97,903.42,0.0,0.0,0.0
30226,2,30226,46,0.23,9.87,0.0,0.8,0.-21,0.11,7.93,11.69,90931.97,903.2,0.0,0.0,0.0
30272,2,30272,46,0.54,10.64,0.63,0.5,0.-16,0.-7,7.93,11.70,90936.35,903.3,0.0,0.0,0.0
30315,2,30315,43,0.11,9.69,0.43,0.17,0.-13,0.-17,7.93,11.69,90937.50,903.22,0.0,0.0,0.0
30361,2,30361,46,0.-5,9.78,0.-3,0.10,0.-10,0.-9,7.93,11.70,90931.97,903.12,0.0,0.0,0.0
30407,2,30407,46,0.21,9.90,1.20,0.-2,0.-14,0.5,7.93,11.70,90934.16,903.52,0.0,0.0,0.0
30453,2,30453,46,0.37,9.94,0.43,0.-5,0.-4,0.-13,7.93,11.69,90940.64,903.31,0.0,0.0,0.0
30504,2,30504,51,0.56,10.60,0.38,0.6,0.-2,0.-25,7.93,11.69,90933.11,902.92,0.0,0.0,0.0
30550,2,30550,46,0.-29,10.1,0.40,0.22,0.-16,0.-14,7.93,11.69,90928.73,903.21,0.0,0.0,0.0
30593,2,30593,43,0.1,9.39,0.-36,0.11,0.-8,0.-9,7.93,11.69,90933.11,902.91,0.0,0.0,0.0
30639,2,30639,46,0.-45,10.24,0.96,0.-28,0.-28,0.13,7.93,11.69,90938.55,903.51,0.0,0.0,0.0
30686,2,30686,47,1.3,10.60,1.26,0.7,0.-5,0.-9,8.0,11.69,90941.78,903.61,0.0,0.0,0.0
30732,2,30732,46,0.26,9.53,0.8,0.6,0.-6,0.-40,8.0,11.69,90941.78,903.71,0.0,0.0,0.0
30778,2,30778,46,0.-24,9.93,0.-6,0.-1,0.-2,0.-44,8.0,11.69,90934.16,903.81,0.0,0.0,0.0
30824,2,30824,46,0.-4,9.96,0.41,0.-6,0.-15,0.-4,7.93,11.69,90934.16,903.1,0.0,0.0,0.0
30867,2,30867,43,0.-34,9.88,1.0,0.8,0.-15,0.15,7.93,11.69,90934.16,903.22,0.0,0.0,0.0
30913,2,30913,46,0.31,10.4,0.2,0.-9,0.-2,0.6,7.93,11.69,90940.64,903.71,0.0,0.0,0.0
30959,2,30959,46,0.24,10.21,1.54,0.-4,0.-15,0.1,7.93,11.69,90933.2,903.2,0.0,0.0,0.0
31010,2,31010,51,0.50,10.6,0.66,0.2,0.-2,0.-29,8.0,11.69,90940.74,903.32,0.0,0.0,0.0
31056,2,31056,46,0.-51,10.14,0.32,0.-23,0.-3,0.-28,7.93,11.70,90935.31,903.32,0.0,0.0,0.0
31102,2,31102,46,0.27,10.26,0.96,0.8,0.-19,0.2,7.93,11.69,90938.55,903.11,0.0,0.0,0.0
31145,2,31145,43,0.42,9.70,0.24,0.4,0.-15,0.1,8.0,11.69,90937.40,903.31,0.0,0.0,0.0
31191,2,31191,46,0.-3,10.1,1.12,0.7,0.-20,0.-4,8.0,11.69,90932.7,903.72,0.0,0.0,0.0
31237,2,31237,46,0.27,10.7,0.63,0.7,0.-12,0.-6,8.0,11.70,90935.21,903.61,0.0,0.0,0.0
31283,2,31283,46,0.22,9.59,0.94,0.3,0.-19,0.-2,7.93,11.70,90933.2,903.3,0.0,0.0,0.0
31329,2,31329,46,0.14,10.33,0.74,0.1,0.-11,0.-9,8.0,11.70,90930.82,903.3,0.0,0.0,0.0
31375,2,31375,46,0.30,9.66,0.34,0.7,0.-12,0.-9,8.0,11.70,90935.21,903.92,0.0,0.0,0.0
31419,2,31419,44,0.20,10.15,0.89,0.0,0.-17,0.-4,8.0,11.69,90939.60,903.3,0.0,0.0,0.0
31465,2,31465,46,0.2,9.99,1.8,0.6,0.-8,0.-13,8.0,11.69,90932.92,903.32,0.0,0.0,0.0
31527,2,31527,62,0.8,10.6,0.74,0.-1,0.-9,0.-8,8.0,11.68,90933.11,903.91,0.0,0.0,0.0
31573,2,31573,46,0.52,10.23,0.67,0.0,0.-6,0.-9,8.0,11.69,90937.50,904.12,0.0,0.0,0.0
31619,2,31619,46,0.17,9.96,0.68,0.1,0.-10,0.-9,8.0,11.69,90937.40,903.42,0.0,0.0,0.0
31665,2,31665,46,0.-12,9.96,0.82,0.3,0.-10,0.-10,7.93,11.69,90925.49,903.91,0.0,0.0,0.0
31708,2,31708,43,0.69,10.15,0.92,0.2,0.1,0.-6,8.0,11.69,90935.21,903.32,0.0,0.0,0.0
31754,2,31754,46,0.7,9.85,0.85,0.1,0.-4,0.-12,8.0,11.70,90929.68,903.43,0.0,0.0,0.0
31800,2,31800,46,0.29,9.82,0.33,0.0,0.-5,0.-12,8.6,11.69,90939.50,903.3,0.0,0.0,0.0
31846,2,31846,46,0.40,10.34,1.22,0.2,0.-11,0.-12,8.0,11.70,90931.78,903.33,0.0,0.0,0.0
31892,2,31892,46,0.34,9.68,0.15,0.21,0.-17,0.-6,8.0,11.70,90937.31,903.52,0.0,0.0,0.0
31938,2,31938,46,0.34,10.1,1.21,0.3,0.-8,0.-9,8.0,11.70,90939.60,903.42,0.0,0.0,0.0
31981,2,31981,43,0.13,9.95,0.69,0.7,0.-6,0.-9,8.0,11.70,90933.2,902.63,0.0,0.0,0.0
32046,2,32046,65,0.2,10.4,0.82,0.0,0.-11,0.-9,8.0,11.68,90938.55,903.91,0.0,0.0,0.0
32092,2,32092,46,0.36,10.10,0.75,0.4,0.-15,0.-12,8.0,11.69,90937.40,903.22,0.0,0.0,0.0
32138,2,32138,46,0.12,9.90,0.85,0.5,0.-12,0.-11,8.0,11.70,90933.11,903.61,0.0,0.0,0.0
32184,2,32184,46,0.-14,9.87,0.55,0.5,0.-13,0.-7,8.0,11.70,90931.88,903.22,0.0,0.0,0.0
32230,2,32230,46,0.47,10.18,1.2,0.3,0.-7,0.-6,7.93,11.70,90940.64,903.61,0.0,0.0,0.0
32273,2,32273,43,0.6,9.93,0.75,0.6,0.-11,0.-11,8.0,11.69,90931.97,903.53,0.0,0.0,0.0
32319,2,32319,46,0.10,10.4,0.76,0.5,0.-14,0.-10,8.0,11.70,90938.45,903.33,0.0,0.0,0.0
32365,2,32365,46,0.43,9.78,0.87,0.6,0.-11,0.-7,7.93,11.71,90931.88,903.42,0.0,0.0,0.0
32411,2,32411,46,0.37,10.15,0.54,0.0,0.-8,0.-8,8.0,11.71,90937.21,903.43,0.0,0.0,0.0
32457,2,32457,46,0.-23,9.93,1.29,0.3,0.-16,0.-13,8.0,11.71,90929.59,903.13,0.0,0.0,0.0
32503,2,32503,46,0.19,9.89,0.46,0.8,0.-8,0.-7,8.6,11.70,90934.7,902.83,0.0,0.0,0.0
32551,2,32551,48,0.84,10.4,0.95,0.1,0.-13,0.-11,8.0,11.70,90938.45,903.33,0.0,0.0,0.0
32597,2,32597,46,0.-25,9.85,1.0,0.10,0.-11,0.-9,8.0,11.70,90932.92,903.52,0.0,0.0,0.0
32643,2,32643,46,0.67,9.96,0.46,0.3,0.-10,0.-8,8.0,11.71,90938.45,903.53,0.0,0.0,0.0
32689,2,32689,46,0.20,9.96,1.0,0.5,0.-15,0.-16,8.0,11.71,90938.45,903.83,0.0,0.0,0.0
32736,2,32736,47,0.2,9.85,0.68,0.3,0.-9,0.-8,8.0,11.70,90933.97,902.94,0.0,0.0,0.0
32782,2,32782,46,0.20,10.15,1.15,0.7,0.-12,0.-11,8.0,11.70,90934.7,903.42,0.0,0.0,0.0
